Hotel_Name,Reviewer_Score,Total_Number_of_Reviews,lat,lng,Hotel_ID,Total_Reviews_Found
Hotel Arena,2.9,1403,52.3605759,4.9159683,Hotel Arena_52.361_4.916,405.0
K K Hotel George,9.6,1831,51.4918878,-0.1949706,K K Hotel George_51.492_-0.195,566.0
Apex Temple Court Hotel,9.2,2619,51.5137335,-0.1087512,Apex Temple Court Hotel_51.514_-0.109,1037.0
The Park Grand London Paddington,8.3,4380,51.5142184,-0.1809032,The Park Grand London Paddington_51.514_-0.181,1770.0
Monhotel Lounge SPA,9.2,171,48.8743481,2.2897334,Monhotel Lounge SPA_48.874_2.29,35.0
Kube Hotel Ice Bar,3.3,197,48.88657,2.3588332,Kube Hotel Ice Bar_48.887_2.359,19.0
The Principal London,7.1,3150,51.5226217,-0.1251602,The Principal London_51.523_-0.125,1425.0
Park Plaza County Hall London,5.0,6117,51.5014001,-0.1160092,Park Plaza County Hall London_51.501_-0.116,2223.0
One Aldwych,5.4,259,51.5117832,-0.1194172,One Aldwych_51.512_-0.119,136.0
Splendid Etoile,7.5,486,48.874707,2.2936761,Splendid Etoile_48.875_2.294,127.0
Hotel Trianon Rive Gauche,10.0,967,48.8487675,2.3410376,Hotel Trianon Rive Gauche_48.849_2.341,218.0
InterContinental London Park Lane,9.6,510,51.5038632,-0.1504132,InterContinental London Park Lane_51.504_-0.15,160.0
Novotel Suites Paris Nord 18 me,7.5,1082,48.9015941,2.3597783,Novotel Suites Paris Nord 18 me_48.902_2.36,180.0
Grand Royale London Hyde Park,7.1,6539,51.5109945,-0.1863417,Grand Royale London Hyde Park_51.511_-0.186,2958.0
Milestone Hotel Kensington,10.0,209,51.5020425,-0.1866541,Milestone Hotel Kensington_51.502_-0.187,86.0
Crowne Plaza London Kings Cross,5.8,2312,51.5263854,-0.1136042,Crowne Plaza London Kings Cross_51.526_-0.114,1007.0
Select Hotel,9.6,1145,48.8483053,2.3425596,Select Hotel_48.848_2.343,256.0
H tel De Vend me,8.8,425,48.8668564,2.3286339,H tel De Vend me_48.867_2.329,89.0
Pullman Paris Centre Bercy,9.6,1382,48.8315204,2.3870797,Pullman Paris Centre Bercy_48.832_2.387,224.0
Gardette Park Hotel,9.6,1011,48.8610265,2.3788974,Gardette Park Hotel_48.861_2.379,179.0
Hotel Panache,6.3,371,48.8732543,2.343239,Hotel Panache_48.873_2.343,82.0
H tel des Ducs D Anjou,5.4,552,48.8598229,2.347111,H tel des Ducs D Anjou_48.86_2.347,108.0
Hotel Scribe Paris Opera by Sofitel,8.8,705,48.8704175,2.3296832,Hotel Scribe Paris Opera by Sofitel_48.87_2.33,135.0
Novotel London West,3.8,2443,51.4919588,-0.2200956,Novotel London West_51.492_-0.22,1283.0
Haymarket Hotel,10.0,255,51.5084595,-0.1311382,Haymarket Hotel_51.508_-0.131,121.0
Intercontinental London The O2,5.8,4204,51.5024348,-0.0002497,Intercontinental London The O2_51.502_-0.0,2551.0
H tel Juliana Paris,10.0,577,48.8619373,2.3040298,H tel Juliana Paris_48.862_2.304,169.0
Hotel L Antoine,9.6,796,48.8524215,2.3743832,Hotel L Antoine_48.852_2.374,171.0
Belfast,9.6,337,48.8756435,2.2938788,Belfast_48.876_2.294,86.0
Shangri La Hotel Paris,9.2,174,48.8637135,2.2934759,Shangri La Hotel Paris_48.864_2.293,46.0
Mercure Paris Tour Eiffel Pont Mirabeau,7.5,259,48.8460269,2.2788281,Mercure Paris Tour Eiffel Pont Mirabeau_48.846_2.279,70.0
Knightsbridge Hotel,10.0,473,51.4980052,-0.1643238,Knightsbridge Hotel_51.498_-0.164,173.0
The London EDITION,9.6,372,51.5167472,-0.135965,The London EDITION_51.517_-0.136,141.0
The Cranley Hotel,5.0,388,51.4916378,-0.1832833,The Cranley Hotel_51.492_-0.183,160.0
Hotel Le 10 BIS,10.0,196,48.8780363,2.2864907,Hotel Le 10 BIS_48.878_2.286,49.0
The Nadler Soho,9.6,1394,51.5147387,-0.1341108,The Nadler Soho_51.515_-0.134,491.0
Grange St Paul s Hotel,7.1,2635,51.5127625,-0.0997157,Grange St Paul s Hotel_51.513_-0.1,1154.0
The Ampersand Hotel,9.6,902,51.4943077,-0.1755579,The Ampersand Hotel_51.494_-0.176,382.0
Covent Garden Hotel,9.6,158,51.5145986,-0.1270336,Covent Garden Hotel_51.515_-0.127,74.0
The Nadler Victoria,9.6,1608,51.4990259,-0.1427453,The Nadler Victoria_51.499_-0.143,601.0
Novotel London Tower Bridge,4.6,1082,51.5106538,-0.0773676,Novotel London Tower Bridge_51.511_-0.077,389.0
Crowne Plaza Paris R publique,7.5,1053,48.8673199,2.3656296,Crowne Plaza Paris R publique_48.867_2.366,212.0
Le Metropolitan a Tribute Portfolio Hotel,8.3,286,48.8656973,2.2829776,Le Metropolitan a Tribute Portfolio Hotel_48.866_2.283,66.0
Atala Champs Elys es,4.2,123,48.8735418,2.302442,Atala Champs Elys es_48.874_2.302,29.0
H tel de Jos phine BONAPARTE,7.1,240,48.8555319,2.3621212,H tel de Jos phine BONAPARTE_48.856_2.362,76.0
Maison Souquet,9.6,282,48.88366,2.3313845,Maison Souquet_48.884_2.331,91.0
Hotel Tour d Auvergne Opera,8.3,164,48.8789432,2.3448623,Hotel Tour d Auvergne Opera_48.879_2.345,25.0
Le Senat,9.6,549,48.8491427,2.3397118,Le Senat_48.849_2.34,120.0
Windsor Opera,10.0,168,48.8734851,2.3485111,Windsor Opera_48.873_2.349,34.0
Holiday Inn Paris Montparnasse Pasteur,4.6,344,48.8376887,2.3063102,Holiday Inn Paris Montparnasse Pasteur_48.838_2.306,37.0
H tel Keppler,9.6,338,48.8699103,2.2973386,H tel Keppler_48.87_2.297,95.0
Les Plumes Hotel,9.6,514,48.8766269,2.3432886,Les Plumes Hotel_48.877_2.343,113.0
Hotel des Tuileries Relais du Silence,7.5,446,48.8661705,2.331561,Hotel des Tuileries Relais du Silence_48.866_2.332,91.0
Bradford Elys es Astotel,10.0,234,48.8729676,2.3081178,Bradford Elys es Astotel_48.873_2.308,82.0
W London Leicester Square,9.2,863,51.510843,-0.1314287,W London Leicester Square_51.511_-0.131,267.0
The Victoria,10.0,272,51.4611219,-0.2756216,The Victoria_51.461_-0.276,162.0
Pullman London St Pancras,7.5,3168,51.5286766,-0.1283489,Pullman London St Pancras_51.529_-0.128,1242.0
Crowne Plaza London Kensington,10.0,743,51.495179,-0.183827,Crowne Plaza London Kensington_51.495_-0.184,305.0
Doubletree by Hilton London Kensington,5.4,2367,51.4925138,-0.1787917,Doubletree by Hilton London Kensington_51.493_-0.179,1009.0
Ace Hotel London Shoreditch,7.9,1593,51.5254162,-0.0772849,Ace Hotel London Shoreditch_51.525_-0.077,514.0
Staybridge Suites London Vauxhall,8.8,742,51.4891226,-0.1205639,Staybridge Suites London Vauxhall_51.489_-0.121,244.0
The Grosvenor,10.0,3274,51.4956657,-0.1452793,The Grosvenor_51.496_-0.145,1517.0
The Park Tower Knightsbridge a Luxury Collection Hotel,7.5,901,51.5014191,-0.1625805,The Park Tower Knightsbridge a Luxury Collection Hotel_51.501_-0.163,275.0
Amp re,9.2,998,48.8848583,2.2997023,Amp re_48.885_2.3,172.0
Melia Paris Champs Elys es,8.8,95,48.8688962,2.2827459,Melia Paris Champs Elys es_48.869_2.283,15.0
Le Parisis Paris Tour Eiffel,10.0,1477,48.8494851,2.2955063,Le Parisis Paris Tour Eiffel_48.849_2.296,428.0
Thistle Kensington Gardens,8.8,2134,51.5108439,-0.1839074,Thistle Kensington Gardens_51.511_-0.184,862.0
Park Plaza Sherlock Holmes London,8.3,1496,51.5209191,-0.1566567,Park Plaza Sherlock Holmes London_51.521_-0.157,592.0
Hilton Paris Opera,10.0,458,48.8756604,2.3252075,Hilton Paris Opera_48.876_2.325,109.0
The Kensington Hotel,8.8,874,51.4925478,-0.1780611,The Kensington Hotel_51.493_-0.178,333.0
Holiday Inn London Stratford City,9.6,2130,51.5426054,-0.0072708,Holiday Inn London Stratford City_51.543_-0.007,994.0
Staybridge Suites London Stratford,9.6,945,51.5426351,-0.0073272,Staybridge Suites London Stratford_51.543_-0.007,490.0
Shepherd s Bush Boutique Hotel,10.0,1069,51.5054544,-0.2262216,Shepherd s Bush Boutique Hotel_51.505_-0.226,531.0
My Bloomsbury,9.2,1161,51.5188555,-0.1319172,My Bloomsbury_51.519_-0.132,463.0
Holiday Inn Paris Gare de Lyon Bastille,9.6,2200,48.8468064,2.3714789,Holiday Inn Paris Gare de Lyon Bastille_48.847_2.371,395.0
H tel Chaplain Paris Rive Gauche,7.5,615,48.8427564,2.3305636,H tel Chaplain Paris Rive Gauche_48.843_2.331,133.0
H tel Regina Op ra Grands Boulevards,7.5,287,48.8708508,2.3515882,H tel Regina Op ra Grands Boulevards_48.871_2.352,44.0
11 Cadogan Gardens,9.6,393,51.4936161,-0.1592347,11 Cadogan Gardens_51.494_-0.159,159.0
The Wellesley Knightsbridge a Luxury Collection Hotel London,6.3,185,51.502485,-0.1539265,The Wellesley Knightsbridge a Luxury Collection Hotel London_51.502_-0.154,77.0
Hotel Astor Saint Honor ,9.2,101,48.8728324,2.3193886,Hotel Astor Saint Honor _48.873_2.319,24.0
Op ra Marigny,10.0,735,48.871723,2.3235377,Op ra Marigny_48.872_2.324,115.0
H tel Diva Opera,8.3,1353,48.8732706,2.3450746,H tel Diva Opera_48.873_2.345,233.0
Le Marcel,8.8,413,48.8761376,2.3572681,Le Marcel_48.876_2.357,72.0
H tel Duo,10.0,883,48.8581186,2.3529369,H tel Duo_48.858_2.353,221.0
H tel Le Marianne,8.8,213,48.8725794,2.3075779,H tel Le Marianne_48.873_2.308,56.0
The Rembrandt,7.9,1802,51.4959227,-0.1702917,The Rembrandt_51.496_-0.17,712.0
Hotel Eden,5.8,477,48.8405612,2.2991035,Hotel Eden_48.841_2.299,70.0
H tel de la Bourdonnais,10.0,1337,48.8550466,2.304583,H tel de la Bourdonnais_48.855_2.305,362.0
Ashburn Hotel,5.0,629,51.4945522,-0.1861213,Ashburn Hotel_51.495_-0.186,239.0
Marlin Waterloo,10.0,218,51.4990953,-0.1132136,Marlin Waterloo_51.499_-0.113,84.0
Best Western Premier Marais Grands Boulevards,9.6,1408,48.8687425,2.3541761,Best Western Premier Marais Grands Boulevards_48.869_2.354,232.0
Novotel London Waterloo,10.0,1047,51.4948465,-0.1187481,Novotel London Waterloo_51.495_-0.119,287.0
The Athenaeum,7.9,364,51.504716,-0.1475618,The Athenaeum_51.505_-0.148,189.0
Park International Hotel,7.5,1252,51.4945144,-0.1866172,Park International Hotel_51.495_-0.187,502.0
Lansbury Heritage Hotel,10.0,82,51.5090985,-0.0157302,Lansbury Heritage Hotel_51.509_-0.016,40.0
Le Dokhan s a Tribute Portfolio Hotel,4.2,222,48.8663359,2.2867935,Le Dokhan s a Tribute Portfolio Hotel_48.866_2.287,68.0
Le Relais Madeleine,10.0,479,48.870961,2.3267678,Le Relais Madeleine_48.871_2.327,87.0
Terrass H tel Montmartre by MH,7.9,707,48.8865626,2.3329648,Terrass H tel Montmartre by MH_48.887_2.333,201.0
Millennium Hotel Paris Opera,6.7,515,48.8724588,2.3378004,Millennium Hotel Paris Opera_48.872_2.338,125.0
Waldorf Madeleine,3.3,1184,48.8715828,2.3224853,Waldorf Madeleine_48.872_2.322,281.0
Batty Langley s,10.0,644,51.5208575,-0.0779503,Batty Langley s_51.521_-0.078,345.0
Best Western Mornington Hotel Hyde Park,8.8,2418,51.5119933,-0.1782794,Best Western Mornington Hotel Hyde Park_51.512_-0.178,824.0
Arbor City,10.0,2197,51.5166755,-0.0697897,Arbor City_51.517_-0.07,781.0
Hotel La Lanterne,10.0,499,48.8489839,2.348383,Hotel La Lanterne_48.849_2.348,96.0
H tel Square Louvois,6.7,320,48.8684165,2.336869,H tel Square Louvois_48.868_2.337,72.0
Hotel Marignan Champs Elys es,8.5,645,48.8685093,2.3067895,Hotel Marignan Champs Elys es_48.869_2.307,162.0
Le Grey Hotel,9.6,393,48.881407,2.3274204,Le Grey Hotel_48.881_2.327,76.0
Le Pavillon des Lettres,9.5,164,48.8713699,2.3181191,Le Pavillon des Lettres_48.871_2.318,40.0
H tel San R gis,9.6,277,48.8665788,2.3084447,H tel San R gis_48.867_2.308,74.0
Garden Elys e,7.1,378,48.8663444,2.2881979,Garden Elys e_48.866_2.288,75.0
Hotel Louvre Montana,7.9,325,48.8644627,2.3318473,Hotel Louvre Montana_48.864_2.332,66.0
Ambassadors Bloomsbury,8.8,1521,51.5266618,-0.1296571,Ambassadors Bloomsbury_51.527_-0.13,768.0
Le 123 S bastopol Astotel,9.6,397,48.8675886,2.3531018,Le 123 S bastopol Astotel_48.868_2.353,130.0
Le 123 Elysees Astotel,9.6,171,48.8730823,2.309659,Le 123 Elysees Astotel_48.873_2.31,53.0
The Bryson Hotel,6.3,264,51.5220869,-0.1082443,The Bryson Hotel_51.522_-0.108,130.0
Best Western Mercedes Arc de Triomphe,10.0,368,48.8848292,2.3035189,Best Western Mercedes Arc de Triomphe_48.885_2.304,58.0
London Marriott Hotel Regents Park,6.7,1640,51.5421476,-0.1703073,London Marriott Hotel Regents Park_51.542_-0.17,752.0
Hilton London Hyde Park,7.5,646,51.51046,-0.1875844,Hilton London Hyde Park_51.51_-0.188,259.0
Staunton Hotel B B,7.1,615,51.520378,-0.1303414,Staunton Hotel B B_51.52_-0.13,248.0
1K Hotel,4.2,663,48.8639318,2.3658744,1K Hotel_48.864_2.366,148.0
H tel Westminster,9.2,1374,48.8693409,2.3310263,H tel Westminster_48.869_2.331,313.0
L H tel,10.0,224,48.8562272,2.3351758,L H tel_48.856_2.335,79.0
Mercure Paris Porte d Orleans,7.9,110,48.8178079,2.3293636,Mercure Paris Porte d Orleans_48.818_2.329,10.0
Maxim Op ra,8.3,256,48.8738557,2.3444232,Maxim Op ra_48.874_2.344,35.0
Le Marceau Bastille,9.2,1059,48.8490691,2.3697484,Le Marceau Bastille_48.849_2.37,150.0
Hotel Odeon Saint Germain,9.2,559,48.8513515,2.3375084,Hotel Odeon Saint Germain_48.851_2.338,167.0
Mercure London Bloomsbury Hotel,9.2,1361,51.5210085,-0.1230966,Mercure London Bloomsbury Hotel_51.521_-0.123,602.0
The Chamberlain,10.0,2543,51.5122457,-0.0757326,The Chamberlain_51.512_-0.076,969.0
Radisson Blu Edwardian Grafton,7.1,2826,51.5241386,-0.1380807,Radisson Blu Edwardian Grafton_51.524_-0.138,1354.0
La Villa Haussmann,8.8,283,48.8753446,2.3167161,La Villa Haussmann_48.875_2.317,41.0
London Marriott Hotel Marble Arch,10.0,1505,51.5163841,-0.1635764,London Marriott Hotel Marble Arch_51.516_-0.164,480.0
Saint Georges Hotel,5.8,2092,51.517839,-0.1424476,Saint Georges Hotel_51.518_-0.142,728.0
Park Grand London Lancaster Gate,6.0,1519,51.5132069,-0.1807816,Park Grand London Lancaster Gate_51.513_-0.181,556.0
The Henrietta Hotel,9.6,49,51.5109079,-0.1238221,The Henrietta Hotel_51.511_-0.124,27.0
Sofitel Paris Arc De Triomphe,8.8,825,48.8751845,2.3013214,Sofitel Paris Arc De Triomphe_48.875_2.301,194.0
Hotel Mercure La Sorbonne Saint Germain des Pr s,8.3,464,48.8493499,2.3430569,Hotel Mercure La Sorbonne Saint Germain des Pr s_48.849_2.343,80.0
La Tremoille Paris,6.3,283,48.8668589,2.3028215,La Tremoille Paris_48.867_2.303,76.0
Hotel Op ra Richepanse,10.0,1073,48.8686931,2.325211,Hotel Op ra Richepanse_48.869_2.325,242.0
H tel Duc De St Simon,9.6,379,48.8560685,2.3236846,H tel Duc De St Simon_48.856_2.324,115.0
Hotel Le Six,10.0,177,48.8438352,2.3280708,Hotel Le Six_48.844_2.328,63.0
The Bailey s Hotel London,9.2,2485,51.4938733,-0.1824963,The Bailey s Hotel London_51.494_-0.182,1018.0
London Marriott Hotel Park Lane,9.2,213,51.5131428,-0.1576714,London Marriott Hotel Park Lane_51.513_-0.158,78.0
Best Western Premier Louvre Saint Honor ,6.3,923,48.861711,2.340674,Best Western Premier Louvre Saint Honor _48.862_2.341,205.0
Hotel Indigo London Tower Hill,9.6,781,51.5128032,-0.07586,Hotel Indigo London Tower Hill_51.513_-0.076,346.0
Windermere Hotel,10.0,221,51.4903724,-0.1459218,Windermere Hotel_51.49_-0.146,95.0
La Villa Maillot,9.2,445,48.875551,2.2835191,La Villa Maillot_48.876_2.284,77.0
H tel Madison by MH,8.8,478,48.8531641,2.3344097,H tel Madison by MH_48.853_2.334,101.0
Mercure London Paddington Hotel,4.6,1458,51.5161139,-0.1749521,Mercure London Paddington Hotel_51.516_-0.175,634.0
Hilton London Paddington,5.8,2898,51.515632,-0.175737,Hilton London Paddington_51.516_-0.176,1167.0
London Marriott Hotel Kensington,7.1,449,51.4944849,-0.1884174,London Marriott Hotel Kensington_51.494_-0.188,189.0
Kensington House Hotel,10.0,689,51.5012329,-0.1859937,Kensington House Hotel_51.501_-0.186,269.0
Charlotte Street Hotel,10.0,319,51.5184158,-0.1348509,Charlotte Street Hotel_51.518_-0.135,141.0
The Goring,9.6,200,51.4975621,-0.145551,The Goring_51.498_-0.146,102.0
Novotel Paris 14 Porte d Orl ans,8.8,147,48.8196885,2.3263505,Novotel Paris 14 Porte d Orl ans_48.82_2.326,27.0
The Pelham Starhotels Collezione,10.0,833,51.4943935,-0.1750169,The Pelham Starhotels Collezione_51.494_-0.175,277.0
The Montague On The Gardens,8.8,931,51.520181,-0.1256957,The Montague On The Gardens_51.52_-0.126,414.0
Ritz Paris,9.6,122,48.8679466,2.3289593,Ritz Paris_48.868_2.329,28.0
Hotel Les Rives de Notre Dame,10.0,265,48.8532269,2.3457159,Hotel Les Rives de Notre Dame_48.853_2.346,72.0
Sofitel Paris Le Faubourg,8.8,564,48.868414,2.3213247,Sofitel Paris Le Faubourg_48.868_2.321,137.0
Bassano,8.3,513,48.8690596,2.2971078,Bassano_48.869_2.297,100.0
Best Western Premier Le Swann,7.5,601,48.8797331,2.3206003,Best Western Premier Le Swann_48.88_2.321,91.0
H tel des Academies et des Arts,10.0,215,48.8420669,2.3304091,H tel des Academies et des Arts_48.842_2.33,50.0
Hotel Lumen Paris Louvre,10.0,289,48.8652582,2.3329632,Hotel Lumen Paris Louvre_48.865_2.333,70.0
Le Marquis Eiffel,10.0,489,48.8516619,2.2979395,Le Marquis Eiffel_48.852_2.298,121.0
COQ Hotel Paris,10.0,1682,48.8328764,2.3572531,COQ Hotel Paris_48.833_2.357,258.0
Mill sime H tel,10.0,656,48.8550236,2.3350786,Mill sime H tel_48.855_2.335,167.0
The Leonard Hotel,7.5,1330,51.5147071,-0.1578291,The Leonard Hotel_51.515_-0.158,435.0
DoubleTree by Hilton London Hyde Park,9.2,2405,51.5100362,-0.190657,DoubleTree by Hilton London Hyde Park_51.51_-0.191,945.0
The Ritz London,9.6,831,51.5069446,-0.1415776,The Ritz London_51.507_-0.142,406.0
M by Montcalm Shoreditch London Tech City,8.8,4802,51.5278465,-0.0889473,M by Montcalm Shoreditch London Tech City_51.528_-0.089,2155.0
Legend Saint Germain by Elegancia,9.6,406,48.8453774,2.3256427,Legend Saint Germain by Elegancia_48.845_2.326,78.0
Clayton Crown Hotel London,6.7,2491,51.5561548,-0.2141824,Clayton Crown Hotel London_51.556_-0.214,1079.0
Au Manoir Saint Germain,8.8,616,48.853688,2.3322667,Au Manoir Saint Germain_48.854_2.332,166.0
St Paul s Hotel,10.0,812,51.4934752,-0.2153256,St Paul s Hotel_51.493_-0.215,381.0
Best Western S vres Montparnasse,10.0,1544,48.843707,2.3155631,Best Western S vres Montparnasse_48.844_2.316,188.0
The Bloomsbury Hotel,9.6,1254,51.5171671,-0.1290534,The Bloomsbury Hotel_51.517_-0.129,539.0
Nolinski Paris,9.6,437,48.8654874,2.3348924,Nolinski Paris_48.865_2.335,113.0
Le Tourville Eiffel,8.8,545,48.8542681,2.3078116,Le Tourville Eiffel_48.854_2.308,140.0
Paris Marriott Opera Ambassador Hotel,6.7,263,48.8728351,2.3362507,Paris Marriott Opera Ambassador Hotel_48.873_2.336,66.0
Hotel Indigo London Paddington,9.2,602,51.5150534,-0.1739974,Hotel Indigo London Paddington_51.515_-0.174,268.0
Idol Hotel,8.3,560,48.8795369,2.3202966,Idol Hotel_48.88_2.32,104.0
H tel California Champs Elys es,5.0,1332,48.8726335,2.3048084,H tel California Champs Elys es_48.873_2.305,275.0
Hotel de Seze,7.9,489,48.8705741,2.3264194,Hotel de Seze_48.871_2.326,80.0
Number Sixteen,10.0,270,51.4930905,-0.1755022,Number Sixteen_51.493_-0.176,87.0
Hotel Xenia Autograph Collection,8.8,682,51.4946905,-0.1910197,Hotel Xenia Autograph Collection_51.495_-0.191,296.0
H tel Hor,9.6,1090,48.8793427,2.3577745,H tel Hor_48.879_2.358,330.0
Britannia International Hotel Canary Wharf,7.9,9086,51.5019097,-0.0232208,Britannia International Hotel Canary Wharf_51.502_-0.023,4789.0
Best Western Op ra Batignolles,6.3,859,48.8870573,2.3143297,Best Western Op ra Batignolles_48.887_2.314,101.0
H tel de Banville,10.0,493,48.8864673,2.2948911,H tel de Banville_48.886_2.295,104.0
Villa Eugenie,4.6,165,48.8871283,2.314205,Villa Eugenie_48.887_2.314,62.0
Hilton London Euston,5.8,843,51.5265189,-0.1303689,Hilton London Euston_51.527_-0.13,470.0
Egerton House,8.3,199,51.4968406,-0.1675498,Egerton House_51.497_-0.168,76.0
Millennium Hotel London Knightsbridge,7.1,2746,51.4999683,-0.1599927,Millennium Hotel London Knightsbridge_51.5_-0.16,1007.0
H tel Raphael,7.5,282,48.8713239,2.2937849,H tel Raphael_48.871_2.294,78.0
Le 7 Eiffel Hotel,7.1,316,48.8585193,2.3077243,Le 7 Eiffel Hotel_48.859_2.308,76.0
Paris Marriott Rive Gauche Hotel,5.4,239,48.8315962,2.3399796,Paris Marriott Rive Gauche Hotel_48.832_2.34,46.0
Hotel La Place,4.6,301,51.5215257,-0.1533039,Hotel La Place_51.522_-0.153,125.0
Hotel Le Pera,9.6,229,48.871309,2.3277079,Hotel Le Pera_48.871_2.328,22.0
H tel Bedford,9.6,1703,48.8720593,2.3236802,H tel Bedford_48.872_2.324,376.0
Drawing Hotel,10.0,67,48.8644382,2.3359148,Drawing Hotel_48.864_2.336,14.0
Novotel Paris Centre Gare Montparnasse,9.6,1363,48.838484,2.3150904,Novotel Paris Centre Gare Montparnasse_48.838_2.315,247.0
D clic Hotel,8.8,360,48.8908018,2.3380204,D clic Hotel_48.891_2.338,59.0
Villa d Estr es,9.2,59,48.8535089,2.3425787,Villa d Estr es_48.854_2.343,29.0
Bulgari Hotel London,10.0,169,51.5015721,-0.1628511,Bulgari Hotel London_51.502_-0.163,37.0
Novotel London Greenwich,7.9,924,51.4778583,-0.0137463,Novotel London Greenwich_51.478_-0.014,504.0
Park Avenue Baker Street,7.9,1913,51.5241452,-0.1609907,Park Avenue Baker Street_51.524_-0.161,851.0
Hotel Plaza Elys es,9.6,563,48.8746128,2.3056956,Hotel Plaza Elys es_48.875_2.306,105.0
Hotel Champs Elys es Friedland by Happyculture,9.2,424,48.8750848,2.3048372,Hotel Champs Elys es Friedland by Happyculture_48.875_2.305,105.0
Malmaison London,8.3,1374,51.520943,-0.1004581,Malmaison London_51.521_-0.1,763.0
The Park City Grand Plaza Kensington Hotel,10.0,667,51.4954976,-0.1893691,The Park City Grand Plaza Kensington Hotel_51.495_-0.189,235.0
Park Plaza London Riverbank,9.2,4684,51.4913737,-0.1214194,Park Plaza London Riverbank_51.491_-0.121,2167.0
Pullman Paris Tour Eiffel,8.8,2764,48.8555664,2.2926243,Pullman Paris Tour Eiffel_48.856_2.293,846.0
Danubius Hotel Regents Park,7.1,1294,51.529257,-0.168358,Danubius Hotel Regents Park_51.529_-0.168,593.0
Hotel Bachaumont,9.2,625,48.8663208,2.3450399,Hotel Bachaumont_48.866_2.345,156.0
Franklin Roosevelt,6.7,402,48.8678432,2.3033075,Franklin Roosevelt_48.868_2.303,88.0
H tel Horset Op ra Best Western Premier Collection,6.3,941,48.8691686,2.3337818,H tel Horset Op ra Best Western Premier Collection_48.869_2.334,199.0
Best Western Paris Gare Saint Lazare,7.1,759,48.8803752,2.319591,Best Western Paris Gare Saint Lazare_48.88_2.32,78.0
Splendide Royal Paris,8.3,59,48.8709627,2.3154141,Splendide Royal Paris_48.871_2.315,16.0
The Rockwell,7.1,1470,51.4948059,-0.1926525,The Rockwell_51.495_-0.193,552.0
The LaLit London,6.3,136,51.5032524,-0.078179,The LaLit London_51.503_-0.078,62.0
Mercure Paris Alesia,8.3,589,48.8237487,2.324056,Mercure Paris Alesia_48.824_2.324,74.0
Courthouse Hotel London,6.7,1786,51.5143624,-0.1394483,Courthouse Hotel London_51.514_-0.139,867.0
Best Western The Boltons Hotel London Kensington,10.0,1573,51.4907493,-0.1934627,Best Western The Boltons Hotel London Kensington_51.491_-0.193,549.0
Radisson Blu Edwardian Sussex,7.9,1295,51.5144381,-0.1558337,Radisson Blu Edwardian Sussex_51.514_-0.156,573.0
Hotel The Peninsula Paris,9.6,275,48.8710605,2.2933537,Hotel The Peninsula Paris_48.871_2.293,58.0
Le Narcisse Blanc Spa,10.0,222,48.8605125,2.3106533,Le Narcisse Blanc Spa_48.861_2.311,57.0
The Pillar Hotel,10.0,215,51.583236,-0.216868,The Pillar Hotel_51.583_-0.217,101.0
Crowne Plaza London The City,7.5,488,51.5122429,-0.1045036,Crowne Plaza London The City_51.512_-0.105,214.0
H tel Les Dames du Panth on,9.6,234,48.845743,2.34493,H tel Les Dames du Panth on_48.846_2.345,70.0
H tel Victor Hugo Paris Kl ber,7.1,236,48.8690198,2.2891278,H tel Victor Hugo Paris Kl ber_48.869_2.289,48.0
Grand Hotel Saint Michel,8.3,625,48.8478399,2.342254,Grand Hotel Saint Michel_48.848_2.342,155.0
Hotel Maison Ath n e,7.5,346,48.8713421,2.3280723,Hotel Maison Ath n e_48.871_2.328,91.0
Relais Du Louvre,9.6,406,48.8592264,2.340996,Relais Du Louvre_48.859_2.341,88.0
Pullman Paris Montparnasse,4.2,1501,48.8382943,2.3210421,Pullman Paris Montparnasse_48.838_2.321,266.0
Best Western Ducs de Bourgogne,9.6,684,48.8603483,2.3440535,Best Western Ducs de Bourgogne_48.86_2.344,142.0
Best Western Premier Op ra Opal,7.9,772,48.8722588,2.3257608,Best Western Premier Op ra Opal_48.872_2.326,141.0
Amarante Champs Elys es,7.9,464,48.8717649,2.2983855,Amarante Champs Elys es_48.872_2.298,102.0
The Gore Hotel Starhotels Collezione,7.1,968,51.5001979,-0.1795357,The Gore Hotel Starhotels Collezione_51.5_-0.18,521.0
The Hoxton Holborn,10.0,1740,51.5172398,-0.1220324,The Hoxton Holborn_51.517_-0.122,755.0
Mercure London Kensington Hotel,9.2,1016,51.4950098,-0.1906195,Mercure London Kensington Hotel_51.495_-0.191,442.0
Royal Garden Hotel,9.6,2213,51.5027022,-0.1882164,Royal Garden Hotel_51.503_-0.188,874.0
Boundary Rooms Suites,9.6,45,51.5244224,-0.0764614,Boundary Rooms Suites_51.524_-0.076,12.0
H tel Ad le Jules,7.5,376,48.8721062,2.3451384,H tel Ad le Jules_48.872_2.345,89.0
Grange White Hall Hotel,4.2,468,51.5203469,-0.1260893,Grange White Hall Hotel_51.52_-0.126,210.0
Hilton London Bankside,8.8,2319,51.5056956,-0.101525,Hilton London Bankside_51.506_-0.102,893.0
DoubleTree by Hilton London Ealing,7.5,1494,51.511521,-0.290706,DoubleTree by Hilton London Ealing_51.512_-0.291,680.0
Molitor Paris MGallery by Sofitel,7.9,659,48.8448902,2.252833,Molitor Paris MGallery by Sofitel_48.845_2.253,73.0
First Hotel Paris Tour Eiffel,9.2,275,48.8475112,2.3022198,First Hotel Paris Tour Eiffel_48.848_2.302,72.0
DoubleTree by Hilton London Victoria,9.2,2902,51.49398,-0.143372,DoubleTree by Hilton London Victoria_51.494_-0.143,1063.0
St Ermin s Hotel Autograph Collection,10.0,857,51.498905,-0.1339093,St Ermin s Hotel Autograph Collection_51.499_-0.134,384.0
Montagu Place Hotel,10.0,287,51.5191009,-0.1592,Montagu Place Hotel_51.519_-0.159,111.0
H tel Regina,9.2,1329,48.8637503,2.3320406,H tel Regina_48.864_2.332,372.0
Mercure Paris Gare De Lyon TGV,7.5,2903,48.8442949,2.3730938,Mercure Paris Gare De Lyon TGV_48.844_2.373,411.0
Villa Montparnasse,8.3,300,48.8349272,2.3295913,Villa Montparnasse_48.835_2.33,52.0
H tel des Champs Elys es,10.0,755,48.8722884,2.3090359,H tel des Champs Elys es_48.872_2.309,183.0
Lyric H tel Paris,8.8,480,48.8690126,2.3368708,Lyric H tel Paris_48.869_2.337,97.0
Hotel Design Secret de Paris,10.0,618,48.8814056,2.3282568,Hotel Design Secret de Paris_48.881_2.328,93.0
Hotel Dupond Smith,10.0,60,48.857898,2.3571978,Hotel Dupond Smith_48.858_2.357,23.0
Okko Hotels Paris Porte De Versailles,8.8,257,48.8327729,2.2787597,Okko Hotels Paris Porte De Versailles_48.833_2.279,43.0
La Villa Royale,10.0,404,48.8821595,2.3367444,La Villa Royale_48.882_2.337,76.0
Hotel Indigo Paris Opera,5.8,616,48.8704371,2.329236,Hotel Indigo Paris Opera_48.87_2.329,115.0
Villa Opera Drouot,9.6,528,48.8732231,2.3436097,Villa Opera Drouot_48.873_2.344,96.0
Novotel Paris Gare De Lyon,10.0,3583,48.8453785,2.3753036,Novotel Paris Gare De Lyon_48.845_2.375,566.0
H tel Belloy Saint Germain By Happyculture,10.0,303,48.8503901,2.3422527,H tel Belloy Saint Germain By Happyculture_48.85_2.342,82.0
Hotel Louis 2,8.8,265,48.8516148,2.3381293,Hotel Louis 2_48.852_2.338,55.0
InterContinental Paris Le Grand,4.2,833,48.8708391,2.3303651,InterContinental Paris Le Grand_48.871_2.33,150.0
The Trafalgar Hilton,10.0,784,51.507374,-0.129135,The Trafalgar Hilton_51.507_-0.129,363.0
Park Lane Mews Hotel,5.4,2061,51.5059334,-0.1489418,Park Lane Mews Hotel_51.506_-0.149,1057.0
Old Ship Inn Hackney,9.6,272,51.5458476,-0.0554113,Old Ship Inn Hackney_51.546_-0.055,140.0
The Drayton Court Hotel,7.5,750,51.5141842,-0.3192925,The Drayton Court Hotel_51.514_-0.319,391.0
The Montcalm Marble Arch,3.8,2752,51.5150522,-0.159239,The Montcalm Marble Arch_51.515_-0.159,1061.0
The Colonnade,7.1,391,51.5243286,-0.1846623,The Colonnade_51.524_-0.185,201.0
The Royal Horseguards,6.3,2007,51.5054185,-0.1241499,The Royal Horseguards_51.505_-0.124,974.0
Grange Fitzrovia Hotel,9.2,1034,51.521759,-0.1425381,Grange Fitzrovia Hotel_51.522_-0.143,455.0
H tel Le M,3.8,1140,48.8397623,2.3235324,H tel Le M_48.84_2.324,131.0
The Hari London,7.9,635,51.4973203,-0.1562558,The Hari London_51.497_-0.156,235.0
citizenM London Bankside,7.1,3802,51.5051507,-0.1004724,citizenM London Bankside_51.505_-0.1,1517.0
Radisson Blu Edwardian Mercer Street,8.8,1478,51.5139275,-0.1271506,Radisson Blu Edwardian Mercer Street_51.514_-0.127,767.0
Twenty Nevern Square Hotel,5.8,1719,51.4915712,-0.1963192,Twenty Nevern Square Hotel_51.492_-0.196,776.0
The Abbey Court Notting Hill,7.5,322,51.5101401,-0.1968951,The Abbey Court Notting Hill_51.51_-0.197,90.0
Seven Hotel,8.8,467,48.8389823,2.3455528,Seven Hotel_48.839_2.346,48.0
Platine Hotel Spa,9.2,729,48.8473459,2.2832408,Platine Hotel Spa_48.847_2.283,113.0
Mercure Paris Notre Dame Saint Germain des Pr s,9.6,268,48.8503074,2.3450612,Mercure Paris Notre Dame Saint Germain des Pr s_48.85_2.345,75.0
Mercure Paris Centre Tour Eiffel,9.6,2611,48.8548641,2.2923181,Mercure Paris Centre Tour Eiffel_48.855_2.292,771.0
Banke H tel,9.2,688,48.8735736,2.335965,Banke H tel_48.874_2.336,159.0
Mondrian London,9.2,3611,51.5084036,-0.1067988,Mondrian London_51.508_-0.107,1593.0
Karma Sanctum Soho Hotel,10.0,423,51.5116049,-0.1383145,Karma Sanctum Soho Hotel_51.512_-0.138,193.0
NH London Kensington,5.8,879,51.4948507,-0.1945544,NH London Kensington_51.495_-0.195,225.0
Saint James Albany Paris Hotel Spa,5.4,2868,48.8642689,2.3308179,Saint James Albany Paris Hotel Spa_48.864_2.331,700.0
Mercure Paris Montparnasse Raspail,8.8,369,48.8412131,2.3302954,Mercure Paris Montparnasse Raspail_48.841_2.33,79.0
Golden Tulip Bercy Gare de Lyon 209,9.6,1099,48.8393229,2.3892274,Golden Tulip Bercy Gare de Lyon 209_48.839_2.389,168.0
Montfleuri,7.9,1106,48.8747153,2.2906388,Montfleuri_48.875_2.291,228.0
Simply Rooms Suites,9.2,226,51.4944875,-0.2070605,Simply Rooms Suites_51.494_-0.207,115.0
Mercure Paris Pigalle Sacre Coeur,5.4,441,48.8823398,2.3364764,Mercure Paris Pigalle Sacre Coeur_48.882_2.336,65.0
The Academy,6.3,612,51.5205441,-0.1308091,The Academy_51.521_-0.131,258.0
Le Meridien Piccadilly,9.2,817,51.5094835,-0.1362538,Le Meridien Piccadilly_51.509_-0.136,260.0
Mercure Paris Terminus Nord,7.5,5575,48.8794843,2.3556545,Mercure Paris Terminus Nord_48.879_2.356,1459.0
H tel F licien by Elegancia,10.0,448,48.8493082,2.2743626,H tel F licien by Elegancia_48.849_2.274,66.0
Le Lavoisier,3.8,66,48.8737702,2.3201063,Le Lavoisier_48.874_2.32,12.0
H tel Moli re,10.0,579,48.8655293,2.3360102,H tel Moli re_48.866_2.336,124.0
Vice Versa,7.9,637,48.8363819,2.2897793,Vice Versa_48.836_2.29,59.0
The Kings Head Hotel,9.2,200,51.5079153,-0.2730145,The Kings Head Hotel_51.508_-0.273,86.0
H tel Etoile Saint Honor by Happyculture,8.3,762,48.8756508,2.3041568,H tel Etoile Saint Honor by Happyculture_48.876_2.304,152.0
Hotel Le petit Paris,7.1,221,48.8452789,2.342295,Hotel Le petit Paris_48.845_2.342,57.0
Mercure Paris 19 Philharmonie La Villette,7.5,607,48.8886969,2.3945403,Mercure Paris 19 Philharmonie La Villette_48.889_2.395,54.0
Royal Garden Champs Elysees,8.8,1125,48.8757155,2.3038781,Royal Garden Champs Elysees_48.876_2.304,202.0
H tel Brighton Esprit de France,9.6,973,48.8649306,2.3290844,H tel Brighton Esprit de France_48.865_2.329,284.0
H tel Paris Bastille Boutet MGallery by Sofitel,5.8,381,48.8519215,2.3839993,H tel Paris Bastille Boutet MGallery by Sofitel_48.852_2.384,63.0
Montcalm Royal London House City of London,7.5,1592,51.5218066,-0.0856081,Montcalm Royal London House City of London_51.522_-0.086,715.0
Conrad London St James,10.0,944,51.4993927,-0.1329128,Conrad London St James_51.499_-0.133,358.0
L Edmond H tel,7.5,174,48.8823111,2.3132374,L Edmond H tel_48.882_2.313,20.0
Novotel Suites Paris Montreuil Vincennes,8.8,1176,48.8554268,2.4152555,Novotel Suites Paris Montreuil Vincennes_48.855_2.415,192.0
London Marriott Hotel West India Quay,6.3,2836,51.5072713,-0.0211213,London Marriott Hotel West India Quay_51.507_-0.021,1481.0
London Hilton on Park Lane,6.3,943,51.5055513,-0.1501698,London Hilton on Park Lane_51.506_-0.15,331.0
Radisson Blu Portman Hotel London,9.2,2308,51.5161911,-0.1579487,Radisson Blu Portman Hotel London_51.516_-0.158,868.0
H tel France d Antin Op ra,5.4,173,48.8692566,2.3339369,H tel France d Antin Op ra_48.869_2.334,30.0
Hotel Stendhal Place Vend me Paris MGallery by Sofitel,10.0,141,48.8681455,2.3313064,Hotel Stendhal Place Vend me Paris MGallery by Sofitel_48.868_2.331,29.0
H tel De Buci by MH,10.0,194,48.8538752,2.3366123,H tel De Buci by MH_48.854_2.337,58.0
Hotel Parc Saint Severin Esprit de France,9.2,600,48.8518584,2.3447798,Hotel Parc Saint Severin Esprit de France_48.852_2.345,162.0
Hotel Chavanel,10.0,130,48.8721692,2.3262681,Hotel Chavanel_48.872_2.326,14.0
The Portobello Hotel,9.2,240,51.512257,-0.2034244,The Portobello Hotel_51.512_-0.203,99.0
Royal Saint Honore,10.0,667,48.8658792,2.3298903,Royal Saint Honore_48.866_2.33,136.0
Landmark London,10.0,1062,51.519016,-0.166267,Landmark London_51.519_-0.166,405.0
Hilton London Metropole,6.3,6977,51.5195688,-0.170521,Hilton London Metropole_51.52_-0.171,2628.0
Best Western Seraphine Kensington Olympia,8.3,895,51.4992791,-0.1973593,Best Western Seraphine Kensington Olympia_51.499_-0.197,374.0
Portobello House,7.5,344,51.5199224,-0.2116636,Portobello House_51.52_-0.212,131.0
Le Meurice,10.0,166,48.8653685,2.328218,Le Meurice_48.865_2.328,40.0
Maison Albar Hotel Paris C line,10.0,326,48.8606187,2.344401,Maison Albar Hotel Paris C line_48.861_2.344,62.0
Henry VIII,7.1,2937,51.5124655,-0.182274,Henry VIII_51.512_-0.182,1107.0
Goodenough Club,7.1,959,51.525535,-0.1180354,Goodenough Club_51.526_-0.118,466.0
Hotel Pulitzer Paris,10.0,1521,48.8731996,2.3425446,Hotel Pulitzer Paris_48.873_2.343,200.0
Hotel Vignon,7.1,617,48.8717146,2.3261812,Hotel Vignon_48.872_2.326,119.0
London Suites,6.5,259,51.5215508,-0.0469238,London Suites_51.522_-0.047,114.0
H tel Aiglon Esprit de France,8.8,1152,48.8396623,2.3300582,H tel Aiglon Esprit de France_48.84_2.33,202.0
Sansi Diputacio,6.3,338,41.3882234,2.1644551,Sansi Diputacio_41.388_2.164,57.0
Park Plaza Victoria London,10.0,4426,51.4942539,-0.1414756,Park Plaza Victoria London_51.494_-0.141,1443.0
Grange Beauchamp Hotel,10.0,761,51.5203266,-0.1245891,Grange Beauchamp Hotel_51.52_-0.125,321.0
The Franklin Hotel Starhotels Collezione,6.3,70,51.4960283,-0.1686355,The Franklin Hotel Starhotels Collezione_51.496_-0.169,28.0
Club Quarters Hotel St Paul s,9.6,4117,51.5139298,-0.101126,Club Quarters Hotel St Paul s_51.514_-0.101,1606.0
Hotel Elys es Bassano,8.3,652,48.8689307,2.2974503,Hotel Elys es Bassano_48.869_2.297,121.0
Hotel Opera Cadet,9.6,349,48.8754371,2.3434586,Hotel Opera Cadet_48.875_2.343,65.0
Phileas Hotel,9.6,1000,48.8768854,2.3270623,Phileas Hotel_48.877_2.327,192.0
Holiday Inn Paris Elys es,10.0,421,48.8730437,2.3161144,Holiday Inn Paris Elys es_48.873_2.316,63.0
H tel Beauchamps,3.8,1463,48.87096,2.3091617,H tel Beauchamps_48.871_2.309,289.0
Best Western Nouvel Orl ans Montparnasse,3.8,988,48.8309896,2.3297301,Best Western Nouvel Orl ans Montparnasse_48.831_2.33,174.0
Hotel Plaza Athenee Paris,10.0,160,48.8661932,2.3042141,Hotel Plaza Athenee Paris_48.866_2.304,36.0
Mercure Paris Place d Italie,7.5,192,48.830196,2.3529539,Mercure Paris Place d Italie_48.83_2.353,27.0
The Nadler Kensington,10.0,1209,51.4931086,-0.190208,The Nadler Kensington_51.493_-0.19,491.0
H tel Da Vinci Spa,9.6,352,48.8565778,2.3319767,H tel Da Vinci Spa_48.857_2.332,146.0
XO Hotel,3.8,49,48.8827492,2.2982782,XO Hotel_48.883_2.298,13.0
H tel Vernet,8.3,473,48.871859,2.2978177,H tel Vernet_48.872_2.298,106.0
Mandarin Oriental Paris,10.0,81,48.8671889,2.326927,Mandarin Oriental Paris_48.867_2.327,21.0
Rosewood London,10.0,1008,51.5173303,-0.1180966,Rosewood London_51.517_-0.118,390.0
Novotel Paris Vaugirard Montparnasse,6.3,1313,48.8399018,2.3031011,Novotel Paris Vaugirard Montparnasse_48.84_2.303,216.0
Mayflower Hotel Apartments,2.5,2197,51.4916677,-0.1947475,Mayflower Hotel Apartments_51.492_-0.195,851.0
Caesar Hotel,9.6,1164,51.5134603,-0.1833081,Caesar Hotel_51.513_-0.183,317.0
Hotel Xanadu,10.0,269,51.5117907,-0.306071,Hotel Xanadu_51.512_-0.306,128.0
Draycott Hotel,9.6,245,51.4930097,-0.159715,Draycott Hotel_51.493_-0.16,129.0
DoubleTree by Hilton London Docklands Riverside,10.0,3826,51.5043483,-0.0334436,DoubleTree by Hilton London Docklands Riverside_51.504_-0.033,2147.0
Bentley London,8.0,486,51.4928147,-0.1841753,Bentley London_51.493_-0.184,198.0
Mercure Paris Arc de Triomphe Etoile,5.8,145,48.8782679,2.294852,Mercure Paris Arc de Triomphe Etoile_48.878_2.295,21.0
Park Grand Paddington Court,6.7,6608,51.5135555,-0.180002,Park Grand Paddington Court_51.514_-0.18,2288.0
The One Barcelona GL,7.1,332,41.3961448,2.1631674,The One Barcelona GL_41.396_2.163,85.0
The Zetter Townhouse Marylebone,10.0,180,51.514839,-0.1586656,The Zetter Townhouse Marylebone_51.515_-0.159,82.0
Forest Hill Paris la Villette,7.1,2740,48.8969854,2.3852745,Forest Hill Paris la Villette_48.897_2.385,239.0
The Levin Hotel,10.0,154,51.4998574,-0.161717,The Levin Hotel_51.5_-0.162,63.0
The Tophams Hotel,3.8,411,51.4957436,-0.1477528,The Tophams Hotel_51.496_-0.148,180.0
Le Pavillon de la Reine Spa,9.2,376,48.8562725,2.3660412,Le Pavillon de la Reine Spa_48.856_2.366,119.0
Hidden Hotel by Elegancia,10.0,303,48.8775326,2.293458,Hidden Hotel by Elegancia_48.878_2.293,80.0
Le Roch Hotel Spa,7.9,118,48.8661991,2.3328826,Le Roch Hotel Spa_48.866_2.333,23.0
H10 London Waterloo,7.1,1114,51.4988817,-0.1062888,H10 London Waterloo_51.499_-0.106,484.0
San Domenico House,7.1,317,51.4917798,-0.1616049,San Domenico House_51.492_-0.162,122.0
Bloomsbury Palace Hotel,3.3,2751,51.5207945,-0.1310845,Bloomsbury Palace Hotel_51.521_-0.131,1273.0
Hotel du Petit Moulin,10.0,206,48.8615843,2.3620652,Hotel du Petit Moulin_48.862_2.362,66.0
Hotel Atmospheres,9.6,654,48.8485387,2.3479852,Hotel Atmospheres_48.849_2.348,155.0
H tel La Comtesse by Elegancia,8.3,363,48.853865,2.3072019,H tel La Comtesse by Elegancia_48.854_2.307,111.0
Hotel Astra Opera Astotel,8.3,250,48.8718321,2.3278866,Hotel Astra Opera Astotel_48.872_2.328,34.0
Hotel La Villa Saint Germain Des Pr s,10.0,190,48.8553486,2.3340736,Hotel La Villa Saint Germain Des Pr s_48.855_2.334,51.0
Grand Pigalle Hotel,10.0,399,48.880856,2.3375085,Grand Pigalle Hotel_48.881_2.338,114.0
Innkeeper s Lodge London Greenwich,7.9,1191,51.4801631,-0.0097201,Innkeeper s Lodge London Greenwich_51.48_-0.01,664.0
Morgan Mees,9.2,507,52.3743712,4.8746196,Morgan Mees_52.374_4.875,149.0
Hotel Duminy Vendome,5.8,769,48.8654726,2.3292934,Hotel Duminy Vendome_48.865_2.329,150.0
Maison Albar H tel Paris Champs Elys es ex Mac Mahon ,10.0,774,48.8753837,2.2944651,Maison Albar H tel Paris Champs Elys es ex Mac Mahon _48.875_2.294,159.0
Holiday Inn London Mayfair,7.9,1894,51.507746,-0.1422993,Holiday Inn London Mayfair_51.508_-0.142,647.0
H tel Recamier,9.2,164,48.8503493,2.3344305,H tel Recamier_48.85_2.334,44.0
TRYP Paris Op ra,8.3,414,48.8713619,2.3426375,TRYP Paris Op ra_48.871_2.343,71.0
Royal Saint Michel,8.8,1193,48.8528364,2.3440803,Royal Saint Michel_48.853_2.344,284.0
Paddington Court Executive Rooms,8.3,681,51.5138357,-0.1797976,Paddington Court Executive Rooms_51.514_-0.18,278.0
Novotel London Paddington,9.6,1187,51.519032,-0.1825943,Novotel London Paddington_51.519_-0.183,391.0
Hyatt Regency Paris Etoile,3.3,3973,48.8802782,2.2843852,Hyatt Regency Paris Etoile_48.88_2.284,874.0
Relais Saint Jacques,10.0,519,48.8430523,2.3422519,Relais Saint Jacques_48.843_2.342,120.0
Hotel Cambon,10.0,323,48.866435,2.3251076,Hotel Cambon_48.866_2.325,55.0
Mercure Paris Montmartre Sacr Coeur,8.3,1652,48.8852794,2.3301021,Mercure Paris Montmartre Sacr Coeur_48.885_2.33,269.0
Relais Christine,8.3,287,48.8542454,2.339956,Relais Christine_48.854_2.34,92.0
Les Matins de Paris Spa,6.7,413,48.878932,2.3394182,Les Matins de Paris Spa_48.879_2.339,63.0
Hotel Square,7.1,148,48.851589,2.2777274,Hotel Square_48.852_2.278,28.0
H tel Bourgogne Montana by MH,10.0,545,48.8601927,2.318423,H tel Bourgogne Montana by MH_48.86_2.318,127.0
The Westin Paris Vend me,5.4,380,48.8657394,2.3274415,The Westin Paris Vend me_48.866_2.327,111.0
Hotel Montalembert,10.0,126,48.8567042,2.3277805,Hotel Montalembert_48.857_2.328,44.0
H tel Mathis Elys es,10.0,652,48.8700325,2.3112736,H tel Mathis Elys es_48.87_2.311,194.0
Le Saint Hotel Paris,7.1,163,48.8565421,2.3303504,Le Saint Hotel Paris_48.857_2.33,42.0
Hotel Le Squara,7.1,776,48.884165,2.3328261,Hotel Le Squara_48.884_2.333,122.0
L Hotel Pergol se Paris,9.2,1281,48.8756618,2.2863468,L Hotel Pergol se Paris_48.876_2.286,195.0
H tel Mayfair Paris,8.3,182,48.8661363,2.3260648,H tel Mayfair Paris_48.866_2.326,51.0
Best Western Plus de Neuville Arc de Triomphe,7.1,516,48.8869128,2.3004034,Best Western Plus de Neuville Arc de Triomphe_48.887_2.3,71.0
South Place Hotel,9.6,769,51.5189182,-0.0866009,South Place Hotel_51.519_-0.087,326.0
The Royal Park Hotel,9.6,331,51.5142054,-0.1766098,The Royal Park Hotel_51.514_-0.177,146.0
Holiday Inn Paris Op ra Grands Boulevards,8.3,581,48.8715469,2.3439622,Holiday Inn Paris Op ra Grands Boulevards_48.872_2.344,110.0
Henley House Hotel,9.6,1179,51.4922348,-0.1914229,Henley House Hotel_51.492_-0.191,419.0
Holiday Inn London Camden Lock,8.8,1572,51.5404555,-0.1460833,Holiday Inn London Camden Lock_51.54_-0.146,740.0
DoubleTree by Hilton London Westminster,9.6,3269,51.4932356,-0.1269082,DoubleTree by Hilton London Westminster_51.493_-0.127,1243.0
Blakemore Hyde Park,7.5,6596,51.5129736,-0.1837431,Blakemore Hyde Park_51.513_-0.184,2178.0
Hyatt Regency London The Churchill,9.2,883,51.5156471,-0.1572443,Hyatt Regency London The Churchill_51.516_-0.157,256.0
Rathbone,7.9,776,51.5186801,-0.1354055,Rathbone_51.519_-0.135,354.0
Le Belmont Champs Elys es,8.8,328,48.8691984,2.2979052,Le Belmont Champs Elys es_48.869_2.298,83.0
Duret,10.0,167,48.8752553,2.286653,Duret_48.875_2.287,38.0
H tel Elysees Mermoz,9.2,564,48.8715079,2.3122259,H tel Elysees Mermoz_48.872_2.312,107.0
Majestic Hotel Spa,2.9,232,48.8703672,2.2938868,Majestic Hotel Spa_48.87_2.294,38.0
BoB Hotel by Elegancia,10.0,271,48.8335233,2.3191194,BoB Hotel by Elegancia_48.834_2.319,49.0
Comfort Inn Suites Kings Cross St Pancras,8.8,1116,51.5289499,-0.1232979,Comfort Inn Suites Kings Cross St Pancras_51.529_-0.123,442.0
The Queens Gate Hotel,6.3,2516,51.4981225,-0.1799693,The Queens Gate Hotel_51.498_-0.18,1103.0
Grange Langham Court Hotel,9.6,754,51.5189077,-0.1421957,Grange Langham Court Hotel_51.519_-0.142,296.0
Radisson Blu Edwardian Hampshire,7.1,1543,51.509963,-0.129797,Radisson Blu Edwardian Hampshire_51.51_-0.13,697.0
Four Seasons Hotel George V Paris,9.6,450,48.8687512,2.3001692,Four Seasons Hotel George V Paris_48.869_2.3,121.0
The Marble Arch London,10.0,1567,51.5151247,-0.1600656,The Marble Arch London_51.515_-0.16,561.0
H tel Fabric,10.0,344,48.8629329,2.3723823,H tel Fabric_48.863_2.372,103.0
H tel du Minist re,9.2,949,48.8712877,2.3191903,H tel du Minist re_48.871_2.319,206.0
Shangri La Hotel at The Shard London,10.0,2200,51.5044972,-0.0855562,Shangri La Hotel at The Shard London_51.504_-0.086,1113.0
Hotel Les Bulles De Paris,5.8,712,48.849147,2.3471935,Hotel Les Bulles De Paris_48.849_2.347,159.0
Acad mie H tel Saint Germain,8.8,855,48.855263,2.3305901,Acad mie H tel Saint Germain_48.855_2.331,255.0
Plaza Tour Eiffel,10.0,266,48.8645647,2.2821827,Plaza Tour Eiffel_48.865_2.282,67.0
Park Grand London Kensington,8.8,4660,51.4938468,-0.1917582,Park Grand London Kensington_51.494_-0.192,2059.0
Rocco Forte Brown s Hotel,9.6,127,51.5090558,-0.1421661,Rocco Forte Brown s Hotel_51.509_-0.142,49.0
Royal Hotel Champs Elys es,4.6,983,48.8740463,2.300196,Royal Hotel Champs Elys es_48.874_2.3,210.0
Best Western Allegro Nation,5.8,354,48.8430891,2.4049867,Best Western Allegro Nation_48.843_2.405,37.0
Prince de Galles a Luxury Collection hotel Paris,7.1,171,48.869143,2.3006526,Prince de Galles a Luxury Collection hotel Paris_48.869_2.301,40.0
The Beaufort,8.3,510,51.4978466,-0.164156,The Beaufort_51.498_-0.164,210.0
H tel La Parizienne by Elegancia,6.3,672,48.8450894,2.3209503,H tel La Parizienne by Elegancia_48.845_2.321,124.0
Madeleine Plaza,7.5,836,48.8710402,2.3248014,Madeleine Plaza_48.871_2.325,138.0
Blakes Hotel,7.5,190,51.4892447,-0.1803196,Blakes Hotel_51.489_-0.18,76.0
Castille Paris Starhotels Collezione,10.0,808,48.8682978,2.3268027,Castille Paris Starhotels Collezione_48.868_2.327,163.0
H tel D Aubusson,10.0,941,48.8547329,2.3395277,H tel D Aubusson_48.855_2.34,294.0
Hotel Oscar,8.8,408,48.8694755,2.3046954,Hotel Oscar_48.869_2.305,84.0
Best Western Bretagne Montparnasse,7.9,1540,48.8354314,2.321142,Best Western Bretagne Montparnasse_48.835_2.321,188.0
The Westbridge Hotel,8.3,1200,51.5373904,-0.0023367,The Westbridge Hotel_51.537_-0.002,588.0
Courthouse Hotel Shoreditch,10.0,477,51.5273442,-0.0796152,Courthouse Hotel Shoreditch_51.527_-0.08,259.0
ME London by Melia,5.4,1017,51.511879,-0.118552,ME London by Melia_51.512_-0.119,471.0
Grange Clarendon Hotel,7.5,823,51.5197933,-0.1241844,Grange Clarendon Hotel_51.52_-0.124,369.0
Hotel Indigo London Kensington,10.0,975,51.4920287,-0.1917801,Hotel Indigo London Kensington_51.492_-0.192,353.0
Novotel Paris 17,4.2,750,48.8920485,2.3023791,Novotel Paris 17_48.892_2.302,101.0
Rafayel Hotel Spa,6.3,1378,51.4703604,-0.1779869,Rafayel Hotel Spa_51.47_-0.178,774.0
Norfolk Towers Paddington,7.5,4065,51.5162883,-0.1721078,Norfolk Towers Paddington_51.516_-0.172,1531.0
Artus Hotel by MH,9.6,261,48.8535639,2.3360169,Artus Hotel by MH_48.854_2.336,58.0
Best Western Premier Kapital Op ra,9.6,1444,48.8814425,2.3235592,Best Western Premier Kapital Op ra_48.881_2.324,277.0
Timhotel Op ra Blanche Fontaine,5.0,466,48.8825781,2.3334805,Timhotel Op ra Blanche Fontaine_48.883_2.333,93.0
H tel Amastan Paris,10.0,102,48.8716831,2.3123759,H tel Amastan Paris_48.872_2.312,34.0
H tel Gustave,9.6,625,48.8502052,2.289043,H tel Gustave_48.85_2.289,165.0
Best Western Maitrise Hotel Edgware Road,4.6,461,51.521148,-0.171346,Best Western Maitrise Hotel Edgware Road_51.521_-0.171,220.0
Georgian House Hotel,9.6,918,51.490724,-0.143868,Georgian House Hotel_51.491_-0.144,328.0
Best Western Tour Eiffel Invalides,7.5,364,48.8593152,2.3104179,Best Western Tour Eiffel Invalides_48.859_2.31,74.0
The Chesterfield Mayfair,10.0,1166,51.5076899,-0.1471358,The Chesterfield Mayfair_51.508_-0.147,482.0
My Chelsea,9.2,1003,51.4919083,-0.1684398,My Chelsea_51.492_-0.168,418.0
Eiffel Trocad ro,6.3,435,48.8613055,2.2862823,Eiffel Trocad ro_48.861_2.286,128.0
Hotel Saint Petersbourg Opera,7.9,2412,48.872174,2.328075,Hotel Saint Petersbourg Opera_48.872_2.328,383.0
H tel Champs lys es Plaza,10.0,343,48.8737043,2.3061477,H tel Champs lys es Plaza_48.874_2.306,65.0
Melia Paris Tour Eiffel,7.9,241,48.8651994,2.3045076,Melia Paris Tour Eiffel_48.865_2.305,53.0
Timhotel Op ra Grands Magasins,7.1,466,48.8794682,2.3334957,Timhotel Op ra Grands Magasins_48.879_2.333,79.0
Dukes Hotel,8.8,210,51.5055381,-0.1396885,Dukes Hotel_51.506_-0.14,74.0
Radisson Blu Edwardian Berkshire,5.8,1600,51.5146025,-0.1481978,Radisson Blu Edwardian Berkshire_51.515_-0.148,555.0
Pestana Chelsea Bridge Hotel Spa,9.6,1686,51.4815995,-0.1481053,Pestana Chelsea Bridge Hotel Spa_51.482_-0.148,710.0
Arbor Hyde Park,10.0,2140,51.5126488,-0.1803795,Arbor Hyde Park_51.513_-0.18,826.0
Mercure Paris Porte De Versailles Expo,7.9,462,48.8268251,2.2912033,Mercure Paris Porte De Versailles Expo_48.827_2.291,40.0
Great St Helen Hotel,7.9,1328,51.5149583,-0.0823869,Great St Helen Hotel_51.515_-0.082,520.0
Hotel Whistler,10.0,115,48.879314,2.3560185,Hotel Whistler_48.879_2.356,28.0
Hotel Georgette,10.0,307,48.8632723,2.352691,Hotel Georgette_48.863_2.353,51.0
Westside Arc de Triomphe Hotel,8.3,1738,48.8811741,2.2948337,Westside Arc de Triomphe Hotel_48.881_2.295,293.0
Etoile Saint Ferdinand,9.2,560,48.8777895,2.2872498,Etoile Saint Ferdinand_48.878_2.287,99.0
H tel Saint Marc,9.6,377,48.8708863,2.3382128,H tel Saint Marc_48.871_2.338,76.0
United Lodge Hotel and Apartments,7.5,714,51.5743549,-0.0977567,United Lodge Hotel and Apartments_51.574_-0.098,223.0
H tel Le Walt,10.0,257,48.8547161,2.306642,H tel Le Walt_48.855_2.307,63.0
H tel Le Royal Monceau Raffles Paris,10.0,119,48.8756359,2.3004967,H tel Le Royal Monceau Raffles Paris_48.876_2.3,22.0
Eccleston Square Hotel,4.6,369,51.4911924,-0.1449474,Eccleston Square Hotel_51.491_-0.145,172.0
Nottingham Place Hotel,7.9,580,51.522143,-0.153385,Nottingham Place Hotel_51.522_-0.153,247.0
Hotel Claridge Paris,10.0,724,48.8684243,2.3036244,Hotel Claridge Paris_48.868_2.304,187.0
Strand Palace Hotel,8.3,9568,51.5110993,-0.1208673,Strand Palace Hotel_51.511_-0.121,4256.0
H tel L Echiquier Op ra Paris MGallery by Sofitel,6.3,666,48.8719889,2.3492913,H tel L Echiquier Op ra Paris MGallery by Sofitel_48.872_2.349,139.0
H tel De Castiglione,9.2,1168,48.8691758,2.3205807,H tel De Castiglione_48.869_2.321,201.0
Hilton London Olympia,7.5,1786,51.4967399,-0.2064723,Hilton London Olympia_51.497_-0.206,889.0
Grange Buckingham Hotel,7.9,128,51.5196124,-0.1239628,Grange Buckingham Hotel_51.52_-0.124,49.0
The Cleveland,9.2,909,51.5139692,-0.1828202,The Cleveland_51.514_-0.183,289.0
Dorset Square Hotel,7.9,263,51.5226361,-0.1602871,Dorset Square Hotel_51.523_-0.16,123.0
Edouard 7 Paris Op ra,9.2,798,48.8683133,2.3330851,Edouard 7 Paris Op ra_48.868_2.333,184.0
Renaissance Paris Arc de Triomphe Hotel,6.7,214,48.8772093,2.2968266,Renaissance Paris Arc de Triomphe Hotel_48.877_2.297,48.0
Rubens At The Palace,10.0,1449,51.4981471,-0.1436492,Rubens At The Palace_51.498_-0.144,765.0
every hotel Piccadilly,5.0,1685,51.5101462,-0.1315061,every hotel Piccadilly_51.51_-0.132,568.0
Millennium Gloucester Hotel London,6.3,5726,51.4935083,-0.1834346,Millennium Gloucester Hotel London_51.494_-0.183,2565.0
Novotel Suites Paris Expo Porte de Versailles,8.8,1250,48.827388,2.305478,Novotel Suites Paris Expo Porte de Versailles_48.827_2.305,228.0
K K H tel Cayr Saint Germain des Pr s,8.3,1431,48.8553117,2.3254628,K K H tel Cayr Saint Germain des Pr s_48.855_2.325,326.0
Fielding Hotel,10.0,1271,51.5139315,-0.1219893,Fielding Hotel_51.514_-0.122,733.0
DoubleTree by Hilton Hotel London Marble Arch,7.9,1290,51.514573,-0.15666,DoubleTree by Hilton Hotel London Marble Arch_51.515_-0.157,425.0
Holiday Inn London West,8.3,1500,51.5210117,-0.2628618,Holiday Inn London West_51.521_-0.263,701.0
The Soho Hotel,9.6,385,51.5139805,-0.1337948,The Soho Hotel_51.514_-0.134,157.0
Le Grand H tel de Normandie,4.6,156,48.8759461,2.3270955,Le Grand H tel de Normandie_48.876_2.327,30.0
Monsieur Cadet Hotel Spa Ex Meyerhold Spa ,10.0,334,48.8742767,2.3426276,Monsieur Cadet Hotel Spa Ex Meyerhold Spa _48.874_2.343,62.0
H tel de La Tamise Esprit de France,8.8,166,48.8648656,2.3295756,H tel de La Tamise Esprit de France_48.865_2.33,61.0
Buddha Bar Hotel Paris,10.0,538,48.8694695,2.3208564,Buddha Bar Hotel Paris_48.869_2.321,117.0
Le A,9.6,348,48.8723844,2.3088663,Le A_48.872_2.309,91.0
Holiday Inn Paris Notre Dame,10.0,1174,48.8528427,2.3422256,Holiday Inn Paris Notre Dame_48.853_2.342,301.0
Mercure Paris Opera Garnier,8.8,501,48.8749511,2.3259532,Mercure Paris Opera Garnier_48.875_2.326,90.0
Grand H tel Du Palais Royal,10.0,704,48.8630829,2.3378592,Grand H tel Du Palais Royal_48.863_2.338,206.0
Best Western Aulivia Op ra,9.2,570,48.8730552,2.3540112,Best Western Aulivia Op ra_48.873_2.354,100.0
Renaissance Paris Vendome Hotel,9.6,74,48.8654532,2.3295231,Renaissance Paris Vendome Hotel_48.865_2.33,14.0
Hotel Park Lane Paris,9.2,824,48.8745879,2.3188143,Hotel Park Lane Paris_48.875_2.319,154.0
Little Palace Hotel,6.3,1377,48.8675674,2.3539896,Little Palace Hotel_48.868_2.354,303.0
Napoleon Paris,10.0,1144,48.8743885,2.2980915,Napoleon Paris_48.874_2.298,234.0
Andaz London Liverpool Street,6.3,1283,51.5172825,-0.0812451,Andaz London Liverpool Street_51.517_-0.081,519.0
Novotel London Canary Wharf,9.2,320,51.5011704,-0.0232607,Novotel London Canary Wharf_51.501_-0.023,146.0
H tel de Lille,9.6,533,48.8585626,2.3299138,H tel de Lille_48.859_2.33,144.0
H tel Concorde Montparnasse,5.8,2515,48.8381079,2.318669,H tel Concorde Montparnasse_48.838_2.319,692.0
Suites H tel Helzear Montparnasse,4.2,544,48.8346811,2.3255098,Suites H tel Helzear Montparnasse_48.835_2.326,78.0
Renaissance Paris Republique Hotel Spa,7.9,54,48.8687804,2.3610196,Renaissance Paris Republique Hotel Spa_48.869_2.361,13.0
citizenM Tower of London,9.6,4672,51.510237,-0.0764428,citizenM Tower of London_51.51_-0.076,1683.0
Chiswick Rooms,8.3,882,51.4937409,-0.244896,Chiswick Rooms_51.494_-0.245,342.0
Claridge s,9.6,293,51.5125035,-0.1477438,Claridge s_51.513_-0.148,157.0
La Suite West Hyde Park,7.5,768,51.5126758,-0.1867828,La Suite West Hyde Park_51.513_-0.187,292.0
St James Court A Taj Hotel London,8.3,5394,51.4986732,-0.1376867,St James Court A Taj Hotel London_51.499_-0.138,2070.0
Elys es R gencia,7.9,1100,48.8686434,2.2984054,Elys es R gencia_48.869_2.298,276.0
H tel De Sers Champs Elys es Paris,8.3,347,48.8683593,2.3002117,H tel De Sers Champs Elys es Paris_48.868_2.3,80.0
Hotel le Lapin Blanc,9.2,619,48.8491801,2.3423357,Hotel le Lapin Blanc_48.849_2.342,152.0
41,10.0,244,51.4981471,-0.1436492,41_51.498_-0.144,103.0
Shaftesbury Suites London Marble Arch,6.7,800,51.515755,-0.1603335,Shaftesbury Suites London Marble Arch_51.516_-0.16,289.0
Grange Strathmore Hotel,4.6,984,51.4958184,-0.1813958,Grange Strathmore Hotel_51.496_-0.181,448.0
H tel R de Paris Boutique Hotel,8.8,533,48.8799239,2.3288332,H tel R de Paris Boutique Hotel_48.88_2.329,113.0
Villa Panth on,7.0,1374,48.8488044,2.3469889,Villa Panth on_48.849_2.347,276.0
Trinit Haussmann,9.6,319,48.8800565,2.3342353,Trinit Haussmann_48.88_2.334,61.0
The RE London Shoreditch,9.6,2147,51.531979,-0.061598,The RE London Shoreditch_51.532_-0.062,893.0
London City Suites,10.0,1744,51.5206309,-0.0915341,London City Suites_51.521_-0.092,740.0
H tel Crayon Rouge by Elegancia,10.0,300,48.8644967,2.3405415,H tel Crayon Rouge by Elegancia_48.864_2.341,82.0
Mercure Paris Opera Grands Boulevards,7.5,359,48.8740668,2.3502172,Mercure Paris Opera Grands Boulevards_48.874_2.35,65.0
St George s Hotel Wembley,10.0,2274,51.5553678,-0.2864945,St George s Hotel Wembley_51.555_-0.286,1212.0
Hotel Le Saint Gregoire,5.8,106,48.8471891,2.3260138,Hotel Le Saint Gregoire_48.847_2.326,20.0
Le Mathurin Hotel Spa,9.6,1184,48.8732068,2.3239015,Le Mathurin Hotel Spa_48.873_2.324,158.0
H tel Saint Paul Rive Gauche,9.6,135,48.8496819,2.3402806,H tel Saint Paul Rive Gauche_48.85_2.34,45.0
The Justin James Hotel,5.4,561,51.4202661,-0.211268,The Justin James Hotel_51.42_-0.211,260.0
Millennium Hotel London Mayfair,9.6,3117,51.510574,-0.1509951,Millennium Hotel London Mayfair_51.511_-0.151,1253.0
H tel de Varenne,10.0,315,48.8570275,2.3170282,H tel de Varenne_48.857_2.317,95.0
A La Villa Madame,10.0,185,48.8488608,2.3315257,A La Villa Madame_48.849_2.332,41.0
The Curtain,9.6,59,51.5237209,-0.0806178,The Curtain_51.524_-0.081,30.0
45 Park Lane Dorchester Collection,9.6,68,51.5063709,-0.1515359,45 Park Lane Dorchester Collection_51.506_-0.152,28.0
Grange Tower Bridge Hotel,7.9,1668,51.5115509,-0.0714919,Grange Tower Bridge Hotel_51.512_-0.071,690.0
Le Tsuba Hotel,10.0,287,48.8777621,2.293177,Le Tsuba Hotel_48.878_2.293,57.0
St Martins Lane A Morgans Original,7.1,1241,51.5104696,-0.1265824,St Martins Lane A Morgans Original_51.51_-0.127,492.0
H tel Barri re Le Fouquet s,5.0,194,48.8710709,2.3013119,H tel Barri re Le Fouquet s_48.871_2.301,35.0
Novotel London Blackfriars,8.8,1362,51.5050165,-0.1049831,Novotel London Blackfriars_51.505_-0.105,428.0
Hotel Villa Lafayette Paris IX,8.8,97,48.8760884,2.3456465,Hotel Villa Lafayette Paris IX_48.876_2.346,25.0
Canary Riverside Plaza Hotel,9.6,310,51.5066991,-0.0280208,Canary Riverside Plaza Hotel_51.507_-0.028,138.0
The Marylebone Hotel,8.8,1738,51.5180207,-0.1500567,The Marylebone Hotel_51.518_-0.15,677.0
L Empire Paris,9.6,619,48.8607764,2.3427564,L Empire Paris_48.861_2.343,119.0
The Zetter Townhouse Clerkenwell,8.8,81,51.5231564,-0.1035134,The Zetter Townhouse Clerkenwell_51.523_-0.104,31.0
The Whitechapel,3.3,830,51.5161286,-0.0624458,The Whitechapel_51.516_-0.062,313.0
Suites H tel Helzear Champs Elys es,7.5,965,48.8691399,2.2981024,Suites H tel Helzear Champs Elys es_48.869_2.298,227.0
St George Hotel,5.0,334,51.5182768,-0.1583511,St George Hotel_51.518_-0.158,122.0
Best Western Premier Op ra Faubourg Ex Hotel Jules ,6.7,1966,48.8753359,2.3414617,Best Western Premier Op ra Faubourg Ex Hotel Jules _48.875_2.341,323.0
Pershing Hall,10.0,67,48.8691325,2.3021659,Pershing Hall_48.869_2.302,14.0
The Premier Notting Hill,9.2,2215,51.5127453,-0.1926437,The Premier Notting Hill_51.513_-0.193,967.0
H tel Pont Royal,7.9,249,48.8565629,2.3273623,H tel Pont Royal_48.857_2.327,62.0
Le G n ral H tel,9.6,480,48.8662695,2.3668616,Le G n ral H tel_48.866_2.367,122.0
H tel Th r se,8.8,509,48.8816306,2.2992146,H tel Th r se_48.882_2.299,132.0
Best Western Premier Trocadero La Tour,8.3,216,48.8583127,2.2795075,Best Western Premier Trocadero La Tour_48.858_2.28,52.0
Holiday Inn London Whitechapel,7.9,1131,51.5154006,-0.0572364,Holiday Inn London Whitechapel_51.515_-0.057,377.0
Washington Mayfair Hotel,8.3,1532,51.5060237,-0.151078,Washington Mayfair Hotel_51.506_-0.151,699.0
Radisson Blu Edwardian New Providence Wharf,10.0,1974,51.5065578,-0.004514,Radisson Blu Edwardian New Providence Wharf_51.507_-0.005,1148.0
Hilton London Tower Bridge,8.3,1705,51.504575,-0.082675,Hilton London Tower Bridge_51.505_-0.083,801.0
Novotel London Wembley,8.8,2924,51.5611271,-0.2787261,Novotel London Wembley_51.561_-0.279,1251.0
Le Relais M dicis,6.3,149,48.8497618,2.3392336,Le Relais M dicis_48.85_2.339,30.0
Les Jardins De La Villa Spa,6.7,622,48.8801757,2.2859534,Les Jardins De La Villa Spa_48.88_2.286,108.0
Warwick Paris Former Warwick Champs Elysees ,3.8,1813,48.8722019,2.3030866,Warwick Paris Former Warwick Champs Elysees _48.872_2.303,411.0
Park Hyatt Paris Vendome,8.8,124,48.8688155,2.3305236,Park Hyatt Paris Vendome_48.869_2.331,29.0
My Home In Paris,9.2,338,48.8636049,2.3688352,My Home In Paris_48.864_2.369,82.0
Mercure Paris Op ra Faubourg Montmartre,6.3,223,48.8729639,2.3444899,Mercure Paris Op ra Faubourg Montmartre_48.873_2.344,33.0
Best Western Plus Elys e Secret,5.8,646,48.8701247,2.311141,Best Western Plus Elys e Secret_48.87_2.311,111.0
Villa Beaumarchais,9.6,1442,48.8589516,2.3670407,Villa Beaumarchais_48.859_2.367,295.0
H tel Mansart Esprit de France,5.8,611,48.8684776,2.3298238,H tel Mansart Esprit de France_48.868_2.33,116.0
Holiday Inn Paris Gare de l Est,8.8,6511,48.8758981,2.3590504,Holiday Inn Paris Gare de l Est_48.876_2.359,1129.0
Le Cinq Codet,5.8,1055,48.8547869,2.3084819,Le Cinq Codet_48.855_2.308,257.0
La Maison Favart,10.0,489,48.870808,2.3372737,La Maison Favart_48.871_2.337,127.0
Le Pradey,5.8,267,48.8645309,2.3315532,Le Pradey_48.865_2.332,59.0
Threadneedles Autograph Collection,5.4,390,51.5140208,-0.0854919,Threadneedles Autograph Collection_51.514_-0.085,196.0
Sanderson A Morgans Hotel,10.0,886,51.5174853,-0.1372109,Sanderson A Morgans Hotel_51.517_-0.137,324.0
The Arch London,10.0,521,51.5159214,-0.1598794,The Arch London_51.516_-0.16,191.0
Commodore Hotel,7.9,2400,51.5124496,-0.1795215,Commodore Hotel_51.512_-0.18,953.0
Golden Tulip Washington Opera,7.5,542,48.866242,2.3373169,Golden Tulip Washington Opera_48.866_2.337,102.0
Residence Henri IV,8.3,454,48.8481917,2.3490316,Residence Henri IV_48.848_2.349,171.0
Hotel du Collectionneur Arc de Triomphe,4.2,1652,48.8769204,2.3069132,Hotel du Collectionneur Arc de Triomphe_48.877_2.307,337.0
The Westbourne Hyde Park,10.0,716,51.5131074,-0.1778707,The Westbourne Hyde Park_51.513_-0.178,275.0
Hotel Le Mareuil,9.6,153,48.8659899,2.3674149,Hotel Le Mareuil_48.866_2.367,47.0
Mercure Paris Champs Elys es,6.3,182,48.8699731,2.2909401,Mercure Paris Champs Elys es_48.87_2.291,39.0
Best Western Le 18 Paris,9.6,527,48.8966167,2.3434843,Best Western Le 18 Paris_48.897_2.343,86.0
The Lodge Hotel Putney,6.7,525,51.4572991,-0.2055425,The Lodge Hotel Putney_51.457_-0.206,297.0
Shaftesbury Hyde Park International,7.5,2907,51.5123968,-0.186124,Shaftesbury Hyde Park International_51.512_-0.186,1029.0
The Montcalm At Brewery London City,10.0,2617,51.5208155,-0.0915319,The Montcalm At Brewery London City_51.521_-0.092,1317.0
H tel Powers,6.3,956,48.8691409,2.3031503,H tel Powers_48.869_2.303,237.0
Villa Lut ce Port Royal,9.2,374,48.8364204,2.3603332,Villa Lut ce Port Royal_48.836_2.36,47.0
Oceania Paris Porte De Versailles,7.5,2541,48.8303023,2.2842872,Oceania Paris Porte De Versailles_48.83_2.284,273.0
BEST WESTERN Maitrise Hotel Maida Vale,6.7,1877,51.5366053,-0.1919832,BEST WESTERN Maitrise Hotel Maida Vale_51.537_-0.192,816.0
Novotel London City South,9.6,917,51.5054832,-0.0951196,Novotel London City South_51.505_-0.095,312.0
The Dorchester Dorchester Collection,9.2,545,51.5074007,-0.1524593,The Dorchester Dorchester Collection_51.507_-0.152,225.0
Mercure Paris Bastille Marais,9.6,299,48.8571207,2.3805581,Mercure Paris Bastille Marais_48.857_2.381,34.0
Hilton London Angel Islington,7.1,1462,51.5360906,-0.1048176,Hilton London Angel Islington_51.536_-0.105,658.0
Fifty Four Boutique Hotel,6.7,684,51.4963008,-0.1796853,Fifty Four Boutique Hotel_51.496_-0.18,310.0
Chateau Frontenac,7.9,858,48.8689468,2.3026559,Chateau Frontenac_48.869_2.303,188.0
H tel Du Jeu De Paume,8.3,312,48.8520377,2.3557092,H tel Du Jeu De Paume_48.852_2.356,106.0
The Sumner Hotel,6.7,762,51.5152892,-0.160898,The Sumner Hotel_51.515_-0.161,266.0
W12 Rooms,9.6,900,51.5045326,-0.2191174,W12 Rooms_51.505_-0.219,405.0
Renaissance Paris Le Parc Trocadero Hotel,8.3,94,48.8673099,2.2856528,Renaissance Paris Le Parc Trocadero Hotel_48.867_2.286,26.0
Shaftesbury Premier London Paddington,5.4,3609,51.5153672,-0.1783271,Shaftesbury Premier London Paddington_51.515_-0.178,1546.0
Hotel Carlton s Montmartre,7.5,559,48.8819068,2.3410005,Hotel Carlton s Montmartre_48.882_2.341,90.0
Hotel Monge,8.3,386,48.8447938,2.3524462,Hotel Monge_48.845_2.352,115.0
Mimi s Hotel Soho,7.1,687,51.5140329,-0.1320651,Mimi s Hotel Soho_51.514_-0.132,390.0
Victoires Opera,4.6,273,48.8648997,2.3469433,Victoires Opera_48.865_2.347,47.0
Holiday Inn London Oxford Circus,7.9,1287,51.516843,-0.1495574,Holiday Inn London Oxford Circus_51.517_-0.15,484.0
Dorsett Shepherds Bush,6.7,2890,51.5039399,-0.2244232,Dorsett Shepherds Bush_51.504_-0.224,1266.0
New Linden Hotel,6.7,2820,51.5133832,-0.1926617,New Linden Hotel_51.513_-0.193,876.0
Le Burgundy Paris,10.0,683,48.8680055,2.3260075,Le Burgundy Paris_48.868_2.326,161.0
Hotel Sezz Paris,9.2,132,48.8566336,2.2852607,Hotel Sezz Paris_48.857_2.285,24.0
Hotel Montaigne,6.7,431,48.865467,2.3038811,Hotel Montaigne_48.865_2.304,89.0
Hotel Royal Elys es,5.4,251,48.8729666,2.2926226,Hotel Royal Elys es_48.873_2.293,45.0
Mercure Paris Bercy Biblioth que,7.5,1082,48.8370334,2.372322,Mercure Paris Bercy Biblioth que_48.837_2.372,125.0
Hazlitt s,10.0,465,51.5143447,-0.1318157,Hazlitt s_51.514_-0.132,241.0
Park Plaza London Waterloo,7.9,1489,51.4982412,-0.1134715,Park Plaza London Waterloo_51.498_-0.113,552.0
citizenM London Shoreditch,8.3,2113,51.5241373,-0.0786983,citizenM London Shoreditch_51.524_-0.079,838.0
H tel Balzac,5.8,694,48.8732785,2.3004174,H tel Balzac_48.873_2.3,166.0
Victoria Palace Hotel,9.2,100,48.8457587,2.3243071,Victoria Palace Hotel_48.846_2.324,24.0
Hotel Eug ne en Ville,10.0,1093,48.8750119,2.3416769,Hotel Eug ne en Ville_48.875_2.342,191.0
Newhotel Roblin,8.3,1327,48.8714152,2.3239679,Newhotel Roblin_48.871_2.324,271.0
Le Relais Montmartre,8.8,744,48.8854538,2.3335809,Le Relais Montmartre_48.885_2.334,182.0
Amarante Beau Manoir,9.6,759,48.870994,2.3235329,Amarante Beau Manoir_48.871_2.324,159.0
Hotel Maison FL,9.2,417,48.8396395,2.2663056,Hotel Maison FL_48.84_2.266,102.0
Balmoral Champs Elys es,9.6,476,48.8759855,2.293938,Balmoral Champs Elys es_48.876_2.294,114.0
The Chess Hotel,10.0,1005,48.8716017,2.3349768,The Chess Hotel_48.872_2.335,235.0
AC Hotel Paris Porte Maillot by Marriott,8.8,403,48.8820046,2.2818538,AC Hotel Paris Porte Maillot by Marriott_48.882_2.282,75.0
B Montmartre,10.0,332,48.883631,2.3257643,B Montmartre_48.884_2.326,90.0
H tel Regent s Garden,6.3,552,48.8797513,2.2919634,H tel Regent s Garden_48.88_2.292,91.0
Mercure Paris 15 Porte de Versailles,6.7,221,48.8382542,2.2903494,Mercure Paris 15 Porte de Versailles_48.838_2.29,25.0
Hotel Le Placide Saint Germain Des Pr s,7.5,123,48.8498439,2.3244253,Hotel Le Placide Saint Germain Des Pr s_48.85_2.324,24.0
Hotel VIU Milan,9.6,219,45.488764,9.183057,Hotel VIU Milan_45.489_9.183,58.0
Sofitel London St James,10.0,1284,51.5076044,-0.132266,Sofitel London St James_51.508_-0.132,352.0
Baglioni Hotel London The Leading Hotels of the World,9.2,290,51.5017224,-0.1846243,Baglioni Hotel London The Leading Hotels of the World_51.502_-0.185,114.0
DoubleTree by Hilton London Islington,9.2,2277,51.5322508,-0.1095714,DoubleTree by Hilton London Islington_51.532_-0.11,909.0
Nell Hotel Suites,8.3,165,48.8741002,2.3426357,Nell Hotel Suites_48.874_2.343,45.0
Rydges Kensington Hotel,7.1,1057,51.4956883,-0.1827878,Rydges Kensington Hotel_51.496_-0.183,496.0
Club Quarters Hotel Lincoln s Inn Fields,8.8,2692,51.5160988,-0.1181749,Club Quarters Hotel Lincoln s Inn Fields_51.516_-0.118,1139.0
Novotel Paris Centre Tour Eiffel,2.5,2310,48.8500283,2.2834126,Novotel Paris Centre Tour Eiffel_48.85_2.283,497.0
Best Western Plus 61 Paris Nation Hotel,5.0,795,48.8465653,2.4102405,Best Western Plus 61 Paris Nation Hotel_48.847_2.41,74.0
Hotel Monsieur,8.8,817,48.8735135,2.3217457,Hotel Monsieur_48.874_2.322,180.0
Hotel Saint Dominique,8.3,516,48.8599998,2.3087425,Hotel Saint Dominique_48.86_2.309,121.0
Clayton Hotel Chiswick,8.3,1944,51.4924184,-0.2784701,Clayton Hotel Chiswick_51.492_-0.278,922.0
Park Plaza London Park Royal,9.2,425,51.527262,-0.282992,Park Plaza London Park Royal_51.527_-0.283,197.0
Hotel Malte Astotel,10.0,121,48.8672474,2.33738,Hotel Malte Astotel_48.867_2.337,26.0
Best Western Palm Hotel,10.0,2037,51.5634756,-0.2042758,Best Western Palm Hotel_51.563_-0.204,949.0
InterContinental Paris Avenue Marceau,5.4,183,48.8706373,2.2982095,InterContinental Paris Avenue Marceau_48.871_2.298,45.0
Mercure Tour Eiffel Grenelle,10.0,153,48.850448,2.2928845,Mercure Tour Eiffel Grenelle_48.85_2.293,39.0
Mercure Paris Bastille Saint Antoine,6.7,168,48.849574,2.3798518,Mercure Paris Bastille Saint Antoine_48.85_2.38,22.0
Boutique H tel Konfidentiel,9.6,86,48.8612535,2.3426256,Boutique H tel Konfidentiel_48.861_2.343,19.0
The Piccadilly London West End,8.8,2298,51.5121957,-0.1318384,The Piccadilly London West End_51.512_-0.132,1125.0
R Kipling by Happyculture,9.6,389,48.8820838,2.3315849,R Kipling by Happyculture_48.882_2.332,84.0
Hotel Des Saints Peres Esprit de France,10.0,560,48.8534026,2.3299043,Hotel Des Saints Peres Esprit de France_48.853_2.33,105.0
Best Western Hotel Montmartre Sacr Coeur,7.9,1201,48.888539,2.3498459,Best Western Hotel Montmartre Sacr Coeur_48.889_2.35,266.0
Kingsway Hall Hotel,9.6,1363,51.5158643,-0.1200625,Kingsway Hall Hotel_51.516_-0.12,683.0
Mandarin Oriental Hyde Park London,10.0,217,51.5022081,-0.1599428,Mandarin Oriental Hyde Park London_51.502_-0.16,85.0
H tel Jos phine by Happyculture,10.0,395,48.8823141,2.3316688,H tel Jos phine by Happyculture_48.882_2.332,76.0
Radisson Blu Edwardian Vanderbilt,7.1,2665,51.4953691,-0.1818966,Radisson Blu Edwardian Vanderbilt_51.495_-0.182,1298.0
Hotel Le Chat Noir,10.0,705,48.8836255,2.3340538,Hotel Le Chat Noir_48.884_2.334,129.0
Hotel Cafe Royal,10.0,1128,51.5100916,-0.1359431,Hotel Cafe Royal_51.51_-0.136,364.0
Mercure Vaugirard Paris Porte De Versailles,8.3,843,48.8330649,2.2879617,Mercure Vaugirard Paris Porte De Versailles_48.833_2.288,106.0
Grange Rochester Hotel,10.0,1046,51.4942654,-0.1366026,Grange Rochester Hotel_51.494_-0.137,364.0
Gainsborough Hotel,9.6,1884,51.4948416,-0.1772056,Gainsborough Hotel_51.495_-0.177,807.0
H tel Bel Ami,10.0,525,48.8550298,2.3332104,H tel Bel Ami_48.855_2.333,105.0
St James Hotel Club Mayfair,10.0,363,51.5061587,-0.1402803,St James Hotel Club Mayfair_51.506_-0.14,135.0
Apex London Wall Hotel,10.0,949,51.5160484,-0.0880181,Apex London Wall Hotel_51.516_-0.088,437.0
Seraphine Kensington Gardens Hotel,9.2,597,51.5021027,-0.187901,Seraphine Kensington Gardens Hotel_51.502_-0.188,310.0
Hotel de Nell,4.2,280,48.8732788,2.3466576,Hotel de Nell_48.873_2.347,81.0
9Hotel Republique,6.7,857,48.8708419,2.3605864,9Hotel Republique_48.871_2.361,183.0
Goralska R sidences H tel Paris Bastille,10.0,107,48.8482842,2.3657251,Goralska R sidences H tel Paris Bastille_48.848_2.366,24.0
Club Quarters Hotel Gracechurch,9.2,2996,51.5127964,-0.0847973,Club Quarters Hotel Gracechurch_51.513_-0.085,1103.0
Grange Blooms Hotel,9.2,393,51.5196913,-0.1254243,Grange Blooms Hotel_51.52_-0.125,173.0
DoubleTree by Hilton Hotel London Tower of London,8.8,7491,51.5108412,-0.0780581,DoubleTree by Hilton Hotel London Tower of London_51.511_-0.078,3212.0
H tel Baume,10.0,253,48.8501522,2.3392782,H tel Baume_48.85_2.339,176.0
Hotel West End,10.0,452,48.8671391,2.3038447,Hotel West End_48.867_2.304,129.0
Arioso,7.5,218,48.8746066,2.3167195,Arioso_48.875_2.317,38.0
H tel Lancaster Paris Champs Elys es,7.1,254,48.8723438,2.3033378,H tel Lancaster Paris Champs Elys es_48.872_2.303,80.0
Melia Paris Notre Dame,9.6,214,48.8515198,2.3486511,Melia Paris Notre Dame_48.852_2.349,54.0
Hotel Mademoiselle,9.6,853,48.8772493,2.3543043,Hotel Mademoiselle_48.877_2.354,201.0
Hotel Les Bains Paris,9.6,153,48.863828,2.3519345,Hotel Les Bains Paris_48.864_2.352,35.0
Hotel Ares Eiffel,9.6,667,48.8503276,2.2982022,Hotel Ares Eiffel_48.85_2.298,212.0
Francois 1er,7.9,603,48.8701887,2.2997281,Francois 1er_48.87_2.3,136.0
H tel Montmartre Mon Amour,5.8,494,48.886687,2.3449332,H tel Montmartre Mon Amour_48.887_2.345,63.0
Hotel Monceau Wagram,5.0,772,48.8808779,2.2989756,Hotel Monceau Wagram_48.881_2.299,110.0
Novotel London Excel,9.2,1158,51.5077198,0.0229805,Novotel London Excel_51.508_0.023,574.0
Paris Marriott Champs Elysees Hotel,5.0,372,48.8711365,2.3050482,Paris Marriott Champs Elysees Hotel_48.871_2.305,94.0
Mercure London Bridge,8.3,947,51.5052587,-0.099176,Mercure London Bridge_51.505_-0.099,414.0
H tel Exquis by Elegancia,5.4,920,48.8536854,2.3805796,H tel Exquis by Elegancia_48.854_2.381,157.0
Grange Wellington Hotel,8.8,1268,51.4944319,-0.1363756,Grange Wellington Hotel_51.494_-0.136,428.0
Les Jardins Du Marais,7.1,838,48.8605219,2.3680239,Les Jardins Du Marais_48.861_2.368,156.0
Hotel Cavendish,8.8,2275,51.5220522,-0.132414,Hotel Cavendish_51.522_-0.132,920.0
Park Grand London Hyde Park,6.7,1891,51.5157316,-0.1802179,Park Grand London Hyde Park_51.516_-0.18,819.0
Shaftesbury Metropolis London Hyde Park,6.3,2867,51.5166887,-0.1706147,Shaftesbury Metropolis London Hyde Park_51.517_-0.171,1095.0
Radisson Blu Champs Elys es Paris,5.0,576,48.8719212,2.2971404,Radisson Blu Champs Elys es Paris_48.872_2.297,152.0
Hotel Eiffel Blomet,9.2,79,48.8416787,2.3022862,Hotel Eiffel Blomet_48.842_2.302,15.0
Holiday Inn Paris Gare Montparnasse,7.9,3228,48.8382916,2.3230188,Holiday Inn Paris Gare Montparnasse_48.838_2.323,331.0
H tel Thoumieux,10.0,127,48.8595985,2.3088076,H tel Thoumieux_48.86_2.309,37.0
The Exhibitionist Hotel,10.0,1708,51.4947754,-0.177789,The Exhibitionist Hotel_51.495_-0.178,804.0
Auteuil Tour Eiffel,10.0,1266,48.8506499,2.2750873,Auteuil Tour Eiffel_48.851_2.275,196.0
Ten Manchester Street Hotel,5.4,478,51.5188,-0.153839,Ten Manchester Street Hotel_51.519_-0.154,218.0
Mercure London Hyde Park,7.5,527,51.5151149,-0.1743857,Mercure London Hyde Park_51.515_-0.174,221.0
London Bridge Hotel,10.0,311,51.5052188,-0.088166,London Bridge Hotel_51.505_-0.088,167.0
Derby Alma,10.0,509,48.8605031,2.3006606,Derby Alma_48.861_2.301,140.0
The Beaumont Hotel,9.2,334,51.513055,-0.152257,The Beaumont Hotel_51.513_-0.152,120.0
Mercure Paris Gobelins Place d Italie,7.5,199,48.8321231,2.3536172,Mercure Paris Gobelins Place d Italie_48.832_2.354,24.0
H tel Original Paris,10.0,148,48.8546989,2.3691899,H tel Original Paris_48.855_2.369,30.0
The Grand at Trafalgar Square,9.6,1592,51.506935,-0.126012,The Grand at Trafalgar Square_51.507_-0.126,733.0
Club Quarters Hotel Trafalgar Square,8.8,2494,51.506935,-0.126012,Club Quarters Hotel Trafalgar Square_51.507_-0.126,945.0
The Laslett,8.8,623,51.5095259,-0.1967234,The Laslett_51.51_-0.197,250.0
Novotel Paris Les Halles,4.6,2398,48.8607299,2.3465326,Novotel Paris Les Halles_48.861_2.347,523.0
Melia Paris Vendome,10.0,307,48.8668228,2.3257729,Melia Paris Vendome_48.867_2.326,51.0
Chambiges Elys es,8.3,858,48.8668048,2.3039465,Chambiges Elys es_48.867_2.304,193.0
MARQUIS Faubourg St Honor Relais Ch teaux,3.8,51,48.8698184,2.3208729,MARQUIS Faubourg St Honor Relais Ch teaux_48.87_2.321,13.0
H tel Le Bellechasse Saint Germain,10.0,307,48.8597024,2.3239701,H tel Le Bellechasse Saint Germain_48.86_2.324,71.0
Hotel Verneuil Saint Germain,5.0,165,48.8573706,2.3314669,Hotel Verneuil Saint Germain_48.857_2.331,75.0
Hotel Daniel Paris,9.6,43,48.8728492,2.3073663,Hotel Daniel Paris_48.873_2.307,12.0
Residence Du Roy,3.8,970,48.8657687,2.3090386,Residence Du Roy_48.866_2.309,222.0
La Maison Champs Elys es,8.8,372,48.866676,2.3089908,La Maison Champs Elys es_48.867_2.309,79.0
H tel Arvor Saint Georges,9.6,493,48.8785454,2.3384866,H tel Arvor Saint Georges_48.879_2.338,106.0
The Belgrave Hotel,10.0,2685,51.4901051,-0.1381355,The Belgrave Hotel_51.49_-0.138,957.0
TheWesley,10.0,2347,51.5265353,-0.1361682,TheWesley_51.527_-0.136,1117.0
Le M ridien Etoile,10.0,579,48.8794646,2.2849548,Le M ridien Etoile_48.879_2.285,91.0
The Hoxton Shoreditch,9.2,1732,51.5255136,-0.082927,The Hoxton Shoreditch_51.526_-0.083,679.0
The Cavendish London,9.2,1039,51.5077459,-0.1378733,The Cavendish London_51.508_-0.138,416.0
Avo Hotel,9.6,276,51.5460628,-0.0700817,Avo Hotel_51.546_-0.07,166.0
Hotel 82 London,9.6,1733,51.5195857,-0.1584803,Hotel 82 London_51.52_-0.158,712.0
La Clef Tour Eiffel,9.2,1258,48.8647019,2.2886425,La Clef Tour Eiffel_48.865_2.289,315.0
Best Western Plus Seraphine Hammersmith Hotel,7.9,1717,51.4926269,-0.2288598,Best Western Plus Seraphine Hammersmith Hotel_51.493_-0.229,743.0
La Chambre du Marais,7.9,301,48.8636168,2.3607998,La Chambre du Marais_48.864_2.361,88.0
Novotel Paris Centre Bercy,9.6,1330,48.8384558,2.3805885,Novotel Paris Centre Bercy_48.838_2.381,171.0
The Zetter Hotel,9.2,394,51.522672,-0.1036841,The Zetter Hotel_51.523_-0.104,177.0
Grosvenor House Suites by Jumeirah Living,10.0,303,51.509841,-0.1552193,Grosvenor House Suites by Jumeirah Living_51.51_-0.155,100.0
Hotel OFF Paris Seine,4.6,683,48.8427364,2.3672171,Hotel OFF Paris Seine_48.843_2.367,79.0
Snob Hotel by Elegancia,9.6,246,48.8622723,2.3495707,Snob Hotel by Elegancia_48.862_2.35,60.0
Sofitel Paris Baltimore Tour Eiffel,9.2,420,48.8663089,2.289609,Sofitel Paris Baltimore Tour Eiffel_48.866_2.29,123.0
88 Studios,10.0,955,51.4992789,-0.2090733,88 Studios_51.499_-0.209,459.0
Adria Boutique Hotel,6.3,478,51.4933372,-0.1788931,Adria Boutique Hotel_51.493_-0.179,231.0
Best Western Premier Faubourg 88,9.6,728,48.8776756,2.3493159,Best Western Premier Faubourg 88_48.878_2.349,179.0
Hotel De Vigny,9.0,368,48.8738672,2.3005894,Hotel De Vigny_48.874_2.301,63.0
Sydney House Chelsea,7.1,585,51.4910062,-0.1717691,Sydney House Chelsea_51.491_-0.172,258.0
Radisson Blu Edwardian Bloomsbury Street,7.1,1641,51.517608,-0.1276253,Radisson Blu Edwardian Bloomsbury Street_51.518_-0.128,886.0
H tel Le Relais Saint Germain,10.0,107,48.8519208,2.338878,H tel Le Relais Saint Germain_48.852_2.339,40.0
Hotel Moonlight,9.6,617,51.4940285,-0.1910497,Hotel Moonlight_51.494_-0.191,285.0
Villa Alessandra,6.3,290,48.8794223,2.2957628,Villa Alessandra_48.879_2.296,26.0
Ibis Styles Paris Gare Saint Lazare,4.6,113,48.8796596,2.3209155,Ibis Styles Paris Gare Saint Lazare_48.88_2.321,14.0
Golden Tulip Opera de Noailles,7.1,823,48.8696173,2.3346428,Golden Tulip Opera de Noailles_48.87_2.335,154.0
Best Western Premier Op ra Li ge,7.1,641,48.8795947,2.3280695,Best Western Premier Op ra Li ge_48.88_2.328,129.0
H tel Cristal Champs Elys es,8.8,604,48.8726814,2.3020866,H tel Cristal Champs Elys es_48.873_2.302,127.0
Best Western Le Jardin de Cluny,5.0,516,48.8497553,2.3467616,Best Western Le Jardin de Cluny_48.85_2.347,120.0
Le Pigalle Hotel,9.6,171,48.8816073,2.3371648,Le Pigalle Hotel_48.882_2.337,42.0
Relais H tel du Vieux Paris,10.0,464,48.8538608,2.3429487,Relais H tel du Vieux Paris_48.854_2.343,156.0
Victoire Germain,10.0,214,48.853299,2.337993,Victoire Germain_48.853_2.338,53.0
Le Littr ,9.6,304,48.8454447,2.3242814,Le Littr _48.845_2.324,44.0
Hotel Le Sainte Beuve,5.8,143,48.8438998,2.3294858,Hotel Le Sainte Beuve_48.844_2.329,98.0
Hotel Villa Saxe Eiffel,8.8,346,48.849758,2.3095213,Hotel Villa Saxe Eiffel_48.85_2.31,80.0
Thistle Hyde Park,7.5,617,51.5112451,-0.1808938,Thistle Hyde Park_51.511_-0.181,299.0
Holiday Inn Paris Saint Germain des Pr s,5.8,1407,48.846837,2.3258066,Holiday Inn Paris Saint Germain des Pr s_48.847_2.326,234.0
Hotel Spa La Belle Juliette,7.1,303,48.8474426,2.3223783,Hotel Spa La Belle Juliette_48.847_2.322,71.0
Rochester Champs Elysees,9.2,570,48.8724945,2.3091549,Rochester Champs Elysees_48.872_2.309,149.0
DoubleTree by Hilton London West End,6.3,1774,51.5201065,-0.1221393,DoubleTree by Hilton London West End_51.52_-0.122,926.0
Hotel d Orsay Esprit de France,9.2,741,48.8603599,2.3230778,Hotel d Orsay Esprit de France_48.86_2.323,211.0
Mercure Paris Opera Louvre,5.8,511,48.8710895,2.3393461,Mercure Paris Opera Louvre_48.871_2.339,94.0
La Villa des Ternes,8.8,937,48.8803479,2.2858242,La Villa des Ternes_48.88_2.286,144.0
Holiday Inn London Kensington Forum,9.6,3867,51.4942305,-0.1851141,Holiday Inn London Kensington Forum_51.494_-0.185,1502.0
Radisson Blu Edwardian Kenilworth,9.2,2011,51.5179725,-0.1280495,Radisson Blu Edwardian Kenilworth_51.518_-0.128,942.0
H tel Monna Lisa Champs Elys es,10.0,418,48.874853,2.3245798,H tel Monna Lisa Champs Elys es_48.875_2.325,92.0
H tel Waldorf Trocad ro,9.6,338,48.8672694,2.2878666,H tel Waldorf Trocad ro_48.867_2.288,74.0
Best Western Amiral Hotel,9.6,1173,48.8252307,2.3569005,Best Western Amiral Hotel_48.825_2.357,119.0
Hotel Les Th tres,7.5,738,48.8694768,2.3515065,Hotel Les Th tres_48.869_2.352,123.0
Mercure Paris 17 me Saint Lazare Monceau,4.2,103,48.8837472,2.3186342,Mercure Paris 17 me Saint Lazare Monceau_48.884_2.319,19.0
Melia White House Hotel,6.3,1871,51.5298597,-0.1444623,Melia White House Hotel_51.53_-0.144,656.0
Sir Albert Hotel,9.2,1068,52.3544507,4.8875036,Sir Albert Hotel_52.354_4.888,335.0
The Waldorf Hilton,4.6,1479,51.5131979,-0.1174504,The Waldorf Hilton_51.513_-0.117,800.0
Corendon Vitality Hotel Amsterdam,9.2,4410,52.3466449,4.8310984,Corendon Vitality Hotel Amsterdam_52.347_4.831,941.0
Hotel Bellevue Wien,10.0,388,48.2264063,16.3600628,Hotel Bellevue Wien_48.226_16.36,45.0
Maison Borella,8.3,777,45.4521067,9.1758135,Maison Borella_45.452_9.176,130.0
Hotel Am Konzerthaus Vienna MGallery by Sofitel,10.0,1307,48.1996129,16.3773546,Hotel Am Konzerthaus Vienna MGallery by Sofitel_48.2_16.377,230.0
Park Hyatt Vienna,9.6,532,48.2105243,16.3683592,Park Hyatt Vienna_48.211_16.368,92.0
Hilton Vienna,7.1,3078,48.2062268,16.3833767,Hilton Vienna_48.206_16.383,561.0
Catalonia Port,10.0,701,41.378751,2.17873,Catalonia Port_41.379_2.179,178.0
Hampshire Hotel Rembrandt Square Amsterdam,9.6,2591,52.3663466,4.8985764,Hampshire Hotel Rembrandt Square Amsterdam_52.366_4.899,748.0
Eurostars Angli,9.6,847,41.4031654,2.1231637,Eurostars Angli_41.403_2.123,77.0
Pillows Anna van den Vondel Amsterdam,10.0,161,52.3607413,4.8695315,Pillows Anna van den Vondel Amsterdam_52.361_4.87,56.0
Schlosshotel R mischer Kaiser,7.5,1350,48.2040859,16.3725046,Schlosshotel R mischer Kaiser_48.204_16.373,301.0
Hotel Mailberger Hof,10.0,1781,48.204183,16.3726664,Hotel Mailberger Hof_48.204_16.373,338.0
Best Western Delphi Hotel,7.1,372,52.3504558,4.8770194,Best Western Delphi Hotel_52.35_4.877,80.0
Apollofirst Boutique Hotel,8.3,1284,52.350396,4.8756404,Apollofirst Boutique Hotel_52.35_4.876,372.0
Hilton Amsterdam,8.8,1064,52.351381,4.872723,Hilton Amsterdam_52.351_4.873,279.0
Apollo Hotel Amsterdam,9.2,2968,52.3486098,4.8844292,Apollo Hotel Amsterdam_52.349_4.884,803.0
Catalonia Catedral,8.3,1914,41.3846637,2.1740902,Catalonia Catedral_41.385_2.174,488.0
Element Amsterdam,9.6,1369,52.3312406,4.8774466,Element Amsterdam_52.331_4.877,298.0
Axel Hotel Barcelona Urban Spa Adults Only,7.9,2694,41.3873478,2.1603987,Axel Hotel Barcelona Urban Spa Adults Only_41.387_2.16,602.0
Cram,9.6,778,41.3880549,2.1599602,Cram_41.388_2.16,159.0
Urban Lodge Hotel,7.1,5018,52.3856494,4.834443,Urban Lodge Hotel_52.386_4.834,1071.0
Novotel Wien City,10.0,1632,48.2134246,16.3831309,Novotel Wien City_48.213_16.383,270.0
The Levante Parliament A Design Hotel,3.8,1958,48.2083518,16.354532,The Levante Parliament A Design Hotel_48.208_16.355,355.0
Room Mate Gerard,9.6,67,41.3919114,2.1765438,Room Mate Gerard_41.392_2.177,14.0
H10 Marina Barcelona,8.3,1579,41.393227,2.1927427,H10 Marina Barcelona_41.393_2.193,318.0
Barcelona Princess,7.5,4293,41.4109715,2.2186535,Barcelona Princess_41.411_2.219,897.0
Novotel Barcelona City,9.2,1679,41.4038774,2.1911894,Novotel Barcelona City_41.404_2.191,274.0
The Gates Diagonal Barcelona,7.9,1725,41.4036219,2.1902808,The Gates Diagonal Barcelona_41.404_2.19,287.0
AC Hotel Diagonal L Illa a Marriott Lifestyle Hotel,9.6,446,41.3899609,2.135684,AC Hotel Diagonal L Illa a Marriott Lifestyle Hotel_41.39_2.136,56.0
Wilson Boutique Hotel,8.3,724,41.3944029,2.150194,Wilson Boutique Hotel_41.394_2.15,145.0
NH Hesperia Barcelona Presidente,8.8,847,41.3941338,2.1489569,NH Hesperia Barcelona Presidente_41.394_2.149,120.0
Hilton Barcelona,8.3,281,41.388682,2.1316368,Hilton Barcelona_41.389_2.132,45.0
Vincci Mae,10.0,546,41.3933943,2.1461315,Vincci Mae_41.393_2.146,106.0
Fairmont Rey Juan Carlos I,7.1,1068,41.3835246,2.1096141,Fairmont Rey Juan Carlos I_41.384_2.11,197.0
Pullman Barcelona Skipper,8.8,1424,41.3860183,2.19473,Pullman Barcelona Skipper_41.386_2.195,278.0
Hotel Ciutadella Barcelona,9.0,448,41.3837583,2.1846933,Hotel Ciutadella Barcelona_41.384_2.185,93.0
Catalonia Atenas,8.8,6792,41.4110056,2.1866009,Catalonia Atenas_41.411_2.187,1061.0
Tryp Barcelona Apolo Hotel,4.2,883,41.3747031,2.1707106,Tryp Barcelona Apolo Hotel_41.375_2.171,179.0
Sansi Pedralbes,10.0,274,41.39367,2.1115418,Sansi Pedralbes_41.394_2.112,30.0
Crowne Plaza Barcelona Fira Center,7.1,494,41.3725246,2.1540788,Crowne Plaza Barcelona Fira Center_41.373_2.154,120.0
Gran Hotel Torre Catalunya,10.0,1671,41.3795572,2.1425457,Gran Hotel Torre Catalunya_41.38_2.143,382.0
H10 Itaca,7.9,732,41.3810311,2.1455516,H10 Itaca_41.381_2.146,125.0
Hotel Abbot,9.2,292,41.3815028,2.1449138,Hotel Abbot_41.382_2.145,39.0
Sercotel Amister Art Hotel Barcelona,10.0,591,41.3844072,2.1514584,Sercotel Amister Art Hotel Barcelona_41.384_2.151,80.0
Melia Barcelona Sarri ,5.0,577,41.391058,2.141706,Melia Barcelona Sarri _41.391_2.142,107.0
ABaC Restaurant Hotel Barcelona GL Monumento,2.5,111,41.4106944,2.136294,ABaC Restaurant Hotel Barcelona GL Monumento_41.411_2.136,31.0
Col n Hotel Barcelona,9.6,1300,41.3849613,2.1756666,Col n Hotel Barcelona_41.385_2.176,396.0
Hotel SB Icaria Barcelona,2.9,3633,41.3935591,2.1993915,Hotel SB Icaria Barcelona_41.394_2.199,839.0
Hotel Barcelona Universal,9.6,807,41.375237,2.1684058,Hotel Barcelona Universal_41.375_2.168,253.0
Aparthotel Arai 4 Superior,9.2,520,41.3807517,2.1772425,Aparthotel Arai 4 Superior_41.381_2.177,205.0
Hotel Ronda Lesseps,5.8,867,41.408641,2.1478143,Hotel Ronda Lesseps_41.409_2.148,83.0
Hotel Barcelona Center,8.8,1472,41.3917169,2.1592614,Hotel Barcelona Center_41.392_2.159,254.0
Olivia Balmes Hotel,10.0,1835,41.392095,2.158493,Olivia Balmes Hotel_41.392_2.158,510.0
Catalonia Diagonal Centro,5.0,1918,41.3938632,2.1568039,Catalonia Diagonal Centro_41.394_2.157,246.0
The Capital,9.2,355,51.4997486,-0.1615242,The Capital_51.5_-0.162,145.0
Vienna Sporthotel,10.0,556,48.191373,16.4082294,Vienna Sporthotel_48.191_16.408,63.0
Megaro Hotel,8.8,1803,51.5294411,-0.1233745,Megaro Hotel_51.529_-0.123,800.0
Hotel De Hallen,10.0,1420,52.3677568,4.8682174,Hotel De Hallen_52.368_4.868,355.0
AC Hotel Victoria Suites a Marriott Lifestyle Hotel,9.2,375,41.3893478,2.1209755,AC Hotel Victoria Suites a Marriott Lifestyle Hotel_41.389_2.121,45.0
Catalonia Plaza Catalunya,5.4,4153,41.3865289,2.1682919,Catalonia Plaza Catalunya_41.387_2.168,964.0
Hotel Regina,9.6,2775,41.3858891,2.1681652,Hotel Regina_41.386_2.168,590.0
Hotel Pulitzer,9.6,1746,41.386136,2.1682914,Hotel Pulitzer_41.386_2.168,495.0
Hotel Alimara,5.4,1991,41.4337561,2.147327,Hotel Alimara_41.434_2.147,195.0
Thistle Holborn The Kingsley,3.3,1593,51.5179659,-0.1234343,Thistle Holborn The Kingsley_51.518_-0.123,709.0
Hotel Boltzmann,5.8,662,48.2216779,16.3567111,Hotel Boltzmann_48.222_16.357,70.0
The Westbury A Luxury Collection Hotel Mayfair London,9.6,715,51.5144418,-0.146432,The Westbury A Luxury Collection Hotel Mayfair London_51.514_-0.146,289.0
Petit Palace Boqueria Garden,9.6,3602,41.3812223,2.1739622,Petit Palace Boqueria Garden_41.381_2.174,786.0
Mercer House B ria BCN,8.8,301,41.3846844,2.1791065,Mercer House B ria BCN_41.385_2.179,89.0
Hotel ViennArt am Museumsquartier,7.9,2692,48.2035677,16.356445,Hotel ViennArt am Museumsquartier_48.204_16.356,458.0
Crowne Plaza London Battersea,7.1,1071,51.4689559,-0.1787256,Crowne Plaza London Battersea_51.469_-0.179,589.0
Amba Hotel Marble Arch,8.8,3980,51.5144004,-0.1565506,Amba Hotel Marble Arch_51.514_-0.157,1262.0
Taj 51 Buckingham Gate Suites and Residences,10.0,310,51.498861,-0.1374897,Taj 51 Buckingham Gate Suites and Residences_51.499_-0.137,133.0
Hotel Sans Souci Wien,10.0,824,48.204576,16.3563661,Hotel Sans Souci Wien_48.205_16.356,235.0
Catalonia La Pedrera,8.3,1135,41.3986093,2.1625037,Catalonia La Pedrera_41.399_2.163,155.0
Ohla Eixample,10.0,978,41.3944574,2.1564353,Ohla Eixample_41.394_2.156,250.0
Jumeirah Carlton Tower,10.0,265,51.4973568,-0.1576728,Jumeirah Carlton Tower_51.497_-0.158,76.0
Hotel Villa Emilia,9.2,869,41.3802469,2.1541149,Hotel Villa Emilia_41.38_2.154,193.0
TWO Hotel Barcelona by Axel 4 Sup Adults Only,7.9,2336,41.37913,2.1561186,TWO Hotel Barcelona by Axel 4 Sup Adults Only_41.379_2.156,522.0
Hotel Best Western PLUS Alfa Aeropuerto,9.2,2521,41.3283758,2.1129638,Hotel Best Western PLUS Alfa Aeropuerto_41.328_2.113,572.0
AC Hotel Irla a Marriott Lifestyle Hotel,7.9,69,41.3948175,2.1434702,AC Hotel Irla a Marriott Lifestyle Hotel_41.395_2.143,16.0
Hotel Barcelona Catedral,10.0,2695,41.384829,2.1751277,Hotel Barcelona Catedral_41.385_2.175,870.0
Arenas Atiram Hotels,8.8,779,41.3904305,2.1262314,Arenas Atiram Hotels_41.39_2.126,75.0
Holiday Inn London Regent s Park,8.3,2266,51.5222472,-0.1426128,Holiday Inn London Regent s Park_51.522_-0.143,826.0
Senator Barcelona Spa Hotel,10.0,3097,41.3777977,2.1135971,Senator Barcelona Spa Hotel_41.378_2.114,569.0
Thistle Euston,8.3,2474,51.5291423,-0.1372782,Thistle Euston_51.529_-0.137,1214.0
The Connaught,8.8,147,51.5101556,-0.1496314,The Connaught_51.51_-0.15,45.0
Room Mate Anna,9.6,1286,41.3929366,2.1653954,Room Mate Anna_41.393_2.165,293.0
Gran Hotel La Florida,8.3,943,41.4253332,2.1211028,Gran Hotel La Florida_41.425_2.121,188.0
Ayre Hotel Caspe,5.8,3442,41.3961021,2.1794688,Ayre Hotel Caspe_41.396_2.179,595.0
Doubletree By Hilton London Greenwich,8.3,1805,51.474469,-0.019428,Doubletree By Hilton London Greenwich_51.474_-0.019,972.0
Chasse Hotel,9.6,404,52.3696719,4.8614475,Chasse Hotel_52.37_4.861,139.0
The Chelsea Harbour Hotel,7.5,1032,51.4756558,-0.1813888,The Chelsea Harbour Hotel_51.476_-0.181,550.0
Palais Coburg Residenz,8.8,98,48.2058584,16.3766545,Palais Coburg Residenz_48.206_16.377,16.0
Zenit Borrell,10.0,758,41.3859873,2.1514021,Zenit Borrell_41.386_2.151,84.0
U232 Hotel,7.5,873,41.3895237,2.1490307,U232 Hotel_41.39_2.149,198.0
Eurostars Monumental,10.0,1382,41.4006653,2.1787089,Eurostars Monumental_41.401_2.179,212.0
Pestana Arena Barcelona,8.3,904,41.376801,2.1460443,Pestana Arena Barcelona_41.377_2.146,142.0
Grange City Hotel,8.3,872,51.5110114,-0.0771251,Grange City Hotel_51.511_-0.077,405.0
Holiday Inn London Bloomsbury,4.6,2995,51.5241248,-0.1258066,Holiday Inn London Bloomsbury_51.524_-0.126,1216.0
The Mirror Barcelona,8.8,711,41.3930406,2.1545393,The Mirror Barcelona_41.393_2.155,157.0
Worldhotel Cristoforo Colombo,10.0,2875,45.4758842,9.205791,Worldhotel Cristoforo Colombo_45.476_9.206,512.0
IH Hotels Milano Puccini,9.6,1577,45.4794406,9.2096756,IH Hotels Milano Puccini_45.479_9.21,175.0
Best Western Hotel City,10.0,1193,45.4858877,9.2042827,Best Western Hotel City_45.486_9.204,173.0
Ch teau Monfort Relais Ch teaux,10.0,1053,45.4682358,9.2073799,Ch teau Monfort Relais Ch teaux_45.468_9.207,227.0
Palazzo Parigi Hotel Grand Spa Milano,10.0,534,45.473348,9.1910733,Palazzo Parigi Hotel Grand Spa Milano_45.473_9.191,122.0
Hotel Lloyd,3.8,1774,45.4580781,9.1924205,Hotel Lloyd_45.458_9.192,211.0
Hotel Romana Residence,9.2,2241,45.4572218,9.1937008,Hotel Romana Residence_45.457_9.194,334.0
Hotel Crivi s,8.8,739,45.4529643,9.1962217,Hotel Crivi s_45.453_9.196,74.0
Hotel Galileo,5.4,1503,45.4642651,9.1960569,Hotel Galileo_45.464_9.196,222.0
Carlyle Brera Hotel,9.2,1969,45.4769923,9.1844899,Carlyle Brera Hotel_45.477_9.184,233.0
Boscolo Milano Autograph Collection,5.4,1213,45.46676,9.194293,Boscolo Milano Autograph Collection_45.467_9.194,195.0
Mokinba Hotels King,7.5,1291,45.4656023,9.1778675,Mokinba Hotels King_45.466_9.178,152.0
Qualys Hotel Nasco,4.6,1658,45.4848809,9.1596461,Qualys Hotel Nasco_45.485_9.16,206.0
Enterprise Hotel Design Boutique,8.8,1686,45.4867005,9.1575137,Enterprise Hotel Design Boutique_45.487_9.158,236.0
Tryp Barcelona Condal Mar Hotel,6.7,660,41.4126508,2.2090895,Tryp Barcelona Condal Mar Hotel_41.413_2.209,100.0
NH Collection Barcelona Constanza,9.6,1542,41.3885274,2.1360471,NH Collection Barcelona Constanza_41.389_2.136,177.0
NH Collection Amsterdam Grand Hotel Krasnapolsky,9.6,4686,52.3727067,4.8943658,NH Collection Amsterdam Grand Hotel Krasnapolsky_52.373_4.894,1243.0
Park Plaza Victoria Amsterdam,8.8,4820,52.377278,4.897818,Park Plaza Victoria Amsterdam_52.377_4.898,1595.0
Hotel Amsterdam De Roode Leeuw,5.4,631,52.373704,4.893591,Hotel Amsterdam De Roode Leeuw_52.374_4.894,170.0
Swiss tel Amsterdam,7.9,2756,52.3735266,4.8933041,Swiss tel Amsterdam_52.374_4.893,830.0
City Rooms,10.0,414,48.2133296,16.3471399,City Rooms_48.213_16.347,44.0
Holiday Inn Amsterdam,4.6,1485,52.3351951,4.8885354,Holiday Inn Amsterdam_52.335_4.889,286.0
Jaz Amsterdam,8.8,7108,52.314371,4.9388064,Jaz Amsterdam_52.314_4.939,1157.0
Best Western Premier Hotel Couture,9.6,8177,52.3511137,4.8411629,Best Western Premier Hotel Couture_52.351_4.841,1809.0
Mercer Hotel Barcelona,7.5,362,41.3827,2.1791999,Mercer Hotel Barcelona_41.383_2.179,146.0
Mercure Vienna First,10.0,516,48.2114567,16.3738677,Mercure Vienna First_48.211_16.374,79.0
Melia Barcelona Sky 4 Sup,7.9,217,41.4061636,2.2008956,Melia Barcelona Sky 4 Sup_41.406_2.201,44.0
Bilderberg Garden Hotel,3.8,2270,52.3511447,4.8740764,Bilderberg Garden Hotel_52.351_4.874,567.0
Ako Suites Hotel,7.5,771,41.3861153,2.1611899,Ako Suites Hotel_41.386_2.161,131.0
Eurostars Cristal Palace,5.8,3046,41.3897945,2.1660575,Eurostars Cristal Palace_41.39_2.166,385.0
HCC St Moritz,10.0,549,41.3908486,2.1680745,HCC St Moritz_41.391_2.168,103.0
Petit Palace Museum,9.6,1594,41.3888014,2.1653738,Petit Palace Museum_41.389_2.165,341.0
NH Amsterdam Noord,7.1,734,52.3923684,4.9110442,NH Amsterdam Noord_52.392_4.911,143.0
Primero Primera,9.2,261,41.4002812,2.1297427,Primero Primera_41.4_2.13,71.0
Hotel 4 Barcelona,9.6,771,41.3959587,2.2008981,Hotel 4 Barcelona_41.396_2.201,120.0
Melia Vienna,8.8,3557,48.231911,16.4129493,Melia Vienna_48.232_16.413,501.0
Graben Hotel,9.6,657,48.2078955,16.3701084,Graben Hotel_48.208_16.37,114.0
Medinaceli,8.8,523,41.3781685,2.1786627,Medinaceli_41.378_2.179,82.0
Grand Hotel Downtown,8.8,1270,52.36513,4.8729422,Grand Hotel Downtown_52.365_4.873,415.0
Amadi Park Hotel,9.2,1615,52.364962,4.873495,Amadi Park Hotel_52.365_4.873,396.0
Hotel Casa Camper,10.0,732,41.3832414,2.1685298,Hotel Casa Camper_41.383_2.169,301.0
Holiday Inn London Wembley,7.1,3469,51.5590955,-0.284704,Holiday Inn London Wembley_51.559_-0.285,1848.0
Austria Trend Hotel Lassalle Wien,7.5,1287,48.2273013,16.4001791,Austria Trend Hotel Lassalle Wien_48.227_16.4,148.0
H10 Art Gallery 4 Sup,6.7,1693,41.392018,2.157066,H10 Art Gallery 4 Sup_41.392_2.157,323.0
Hotel Granados 83,9.2,573,41.391843,2.156844,Hotel Granados 83_41.392_2.157,135.0
Best Western PLUS Epping Forest,7.9,587,51.603207,0.010607,Best Western PLUS Epping Forest_51.603_0.011,328.0
NH Hesperia Barcelona del Mar,9.6,855,41.4014399,2.2100745,NH Hesperia Barcelona del Mar_41.401_2.21,139.0
Novotel Amsterdam City,5.8,2501,52.333803,4.8884708,Novotel Amsterdam City_52.334_4.888,533.0
St Pancras Renaissance Hotel London,9.6,2058,51.5267769,-0.1324905,St Pancras Renaissance Hotel London_51.527_-0.132,1147.0
DoubleTree By Hilton London Excel,8.3,2726,51.507377,0.038657,DoubleTree By Hilton London Excel_51.507_0.039,1464.0
The Guesthouse Vienna,10.0,951,48.2051299,16.369036,The Guesthouse Vienna_48.205_16.369,292.0
Hotel Johann Strauss,5.0,627,48.1949694,16.3692624,Hotel Johann Strauss_48.195_16.369,110.0
Hotel Mercure Wien Westbahnhof,7.9,842,48.1983543,16.3375246,Hotel Mercure Wien Westbahnhof_48.198_16.338,87.0
Savoy Hotel Amsterdam,4.6,995,52.3497431,4.8911908,Savoy Hotel Amsterdam_52.35_4.891,243.0
Hotel Okura Amsterdam,6.3,2295,52.3487635,4.8938829,Hotel Okura Amsterdam_52.349_4.894,459.0
Hotel Eitlj rg,7.5,131,48.1513676,16.4064709,Hotel Eitlj rg_48.151_16.406,12.0
Hotel V Fizeaustraat,10.0,1708,52.3451511,4.9252372,Hotel V Fizeaustraat_52.345_4.925,401.0
Mercure Wien Zentrum,9.6,1105,48.2114087,16.3746469,Mercure Wien Zentrum_48.211_16.375,152.0
Best Western Premier Kaiserhof Wien,10.0,1353,48.1975497,16.3686397,Best Western Premier Kaiserhof Wien_48.198_16.369,334.0
FourSide Hotel Suites Vienna,7.1,1146,48.2565936,16.4031426,FourSide Hotel Suites Vienna_48.257_16.403,110.0
Millennium Copthorne Hotels at Chelsea Football Club,9.2,1842,51.481663,-0.1909565,Millennium Copthorne Hotels at Chelsea Football Club_51.482_-0.191,877.0
IH Hotels Milano Ambasciatori,4.6,2387,45.4644348,9.1952727,IH Hotels Milano Ambasciatori_45.464_9.195,318.0
Crowne Plaza Amsterdam South,9.6,1349,52.3357326,4.8743947,Crowne Plaza Amsterdam South_52.336_4.874,268.0
Durrants Hotel,8.3,1411,51.5179386,-0.1529794,Durrants Hotel_51.518_-0.153,726.0
Mercure Secession Wien,9.6,753,48.200561,16.3647063,Mercure Secession Wien_48.201_16.365,103.0
Hotel Well and Come,8.3,1589,41.3991773,2.1656134,Hotel Well and Come_41.399_2.166,375.0
Ayre Hotel Gran V a,7.9,4887,41.3732462,2.1474351,Ayre Hotel Gran V a_41.373_2.147,797.0
Sunotel Central,9.6,3870,41.3841429,2.1616896,Sunotel Central_41.384_2.162,640.0
Silken Gran Hotel Havana,7.9,1354,41.3927101,2.1722139,Silken Gran Hotel Havana_41.393_2.172,285.0
Cotton House Hotel Autograph Collection,7.9,156,41.3915897,2.1720108,Cotton House Hotel Autograph Collection_41.392_2.172,48.0
Hotel Vueling Bcn by HC,7.5,1696,41.3831641,2.1604736,Hotel Vueling Bcn by HC_41.383_2.16,322.0
H10 Casanova,7.1,641,41.3842608,2.1609471,H10 Casanova_41.384_2.161,159.0
Avenida Palace,10.0,3222,41.3891168,2.1671986,Avenida Palace_41.389_2.167,807.0
Acta Atrium Palace,3.8,1933,41.390913,2.1706981,Acta Atrium Palace_41.391_2.171,458.0
Hotel Indigo Barcelona Plaza Catalunya,5.4,802,41.391362,2.1700953,Hotel Indigo Barcelona Plaza Catalunya_41.391_2.17,133.0
Catalonia Passeig de Gr cia 4 Sup,5.0,2116,41.3901396,2.1696699,Catalonia Passeig de Gr cia 4 Sup_41.39_2.17,500.0
Hotel Palace GL,9.2,1266,41.3916258,2.1716378,Hotel Palace GL_41.392_2.172,357.0
Grupotel Gran Via 678,8.3,1664,41.392344,2.1729157,Grupotel Gran Via 678_41.392_2.173,340.0
Hotel Casa Bonay,10.0,1416,41.3935967,2.1742718,Hotel Casa Bonay_41.394_2.174,360.0
The Cumberland A Guoman Hotel,6.7,5180,51.514879,-0.1606501,The Cumberland A Guoman Hotel_51.515_-0.161,1809.0
FourSide Hotel Vienna City Center,8.3,1284,48.1825159,16.3322428,FourSide Hotel Vienna City Center_48.183_16.332,173.0
Hotel Vienna,9.2,1044,48.2196722,16.3863588,Hotel Vienna_48.22_16.386,135.0
London Marriott Hotel Grosvenor Square,5.8,534,51.511579,-0.1500193,London Marriott Hotel Grosvenor Square_51.512_-0.15,256.0
Rainers Hotel Vienna,7.1,1852,48.1791893,16.3625367,Rainers Hotel Vienna_48.179_16.363,210.0
Pol Grace Hotel,5.4,2220,41.4017465,2.1477365,Pol Grace Hotel_41.402_2.148,400.0
Austria Trend Hotel Bosei Wien,10.0,3287,48.1629737,16.3404024,Austria Trend Hotel Bosei Wien_48.163_16.34,391.0
Pertschy Palais Hotel,9.6,1225,48.2082256,16.3684123,Pertschy Palais Hotel_48.208_16.368,294.0
Alma Boutique Hotel,10.0,730,48.2112491,16.3776519,Alma Boutique Hotel_48.211_16.378,152.0
Flemings Mayfair,6.3,1161,51.5064607,-0.1454198,Flemings Mayfair_51.506_-0.145,499.0
Hilton London Green Park,4.6,1139,51.5064534,-0.1456146,Hilton London Green Park_51.506_-0.146,484.0
COMO The Halkin,10.0,76,51.4988977,-0.1562015,COMO The Halkin_51.499_-0.156,29.0
Four Seasons Hotel London at Park Lane,10.0,361,51.504439,-0.149911,Four Seasons Hotel London at Park Lane_51.504_-0.15,91.0
Hilton Vienna Danube Waterfront,9.6,2349,48.2140659,16.4217627,Hilton Vienna Danube Waterfront_48.214_16.422,426.0
Hotel 55,7.5,722,51.5213303,-0.2915052,Hotel 55_51.521_-0.292,385.0
The Harmonie Vienna,8.8,1083,48.2199427,16.3598984,The Harmonie Vienna_48.22_16.36,206.0
WestCord Fashion Hotel Amsterdam,9.2,5236,52.357655,4.844576,WestCord Fashion Hotel Amsterdam_52.358_4.845,1364.0
The Hoxton Amsterdam,10.0,1075,52.3718665,4.8873794,The Hoxton Amsterdam_52.372_4.887,409.0
Ambassade Hotel,10.0,1611,52.369391,4.8871721,Ambassade Hotel_52.369_4.887,551.0
Banks Mansion All Inclusive Hotel,9.6,803,52.3653868,4.8931979,Banks Mansion All Inclusive Hotel_52.365_4.893,353.0
Waldorf Astoria Amsterdam,10.0,443,52.364768,4.896945,Waldorf Astoria Amsterdam_52.365_4.897,142.0
Senator Hotel Vienna,5.0,2718,48.2195864,16.3255339,Senator Hotel Vienna_48.22_16.326,240.0
Hotel J ger,8.8,315,48.2238463,16.3138357,Hotel J ger_48.224_16.314,40.0
Steigenberger Hotel Herrenhof,10.0,2873,48.2097958,16.3658705,Steigenberger Hotel Herrenhof_48.21_16.366,521.0
Radisson Blu Style Hotel Vienna,7.5,1189,48.2101211,16.3655537,Radisson Blu Style Hotel Vienna_48.21_16.366,249.0
Hilton Garden Inn Vienna South,7.5,244,48.1667886,16.344908,Hilton Garden Inn Vienna South_48.167_16.345,20.0
Austria Trend Parkhotel Sch nbrunn Wien,7.5,4026,48.1866506,16.3023375,Austria Trend Parkhotel Sch nbrunn Wien_48.187_16.302,429.0
Club Hotel Cortina,9.2,734,48.1877942,16.2727214,Club Hotel Cortina_48.188_16.273,64.0
Arion Cityhotel Vienna und Appartements,9.2,3887,48.1585332,16.3451115,Arion Cityhotel Vienna und Appartements_48.159_16.345,464.0
NH Amsterdam Museum Quarter,9.2,854,52.3560923,4.8858229,NH Amsterdam Museum Quarter_52.356_4.886,239.0
Gartenhotel Altmannsdorf Hotel 1,7.5,235,48.1640345,16.3216061,Gartenhotel Altmannsdorf Hotel 1_48.164_16.322,20.0
Hilton London Kensington Hotel,4.2,3801,51.5051084,-0.213266,Hilton London Kensington Hotel_51.505_-0.213,1845.0
Hotel Mercure Wien City,8.3,910,48.2152663,16.376103,Hotel Mercure Wien City_48.215_16.376,129.0
Courtyard by Marriott Amsterdam Arena Atlas,9.6,2179,52.3101182,4.9472918,Courtyard by Marriott Amsterdam Arena Atlas_52.31_4.947,347.0
Holiday Inn Amsterdam Arena Towers,10.0,1992,52.3096835,4.9422614,Holiday Inn Amsterdam Arena Towers_52.31_4.942,282.0
The Lanesborough,10.0,64,51.50303,-0.15242,The Lanesborough_51.503_-0.152,31.0
Amadi Panorama Hotel,8.3,2586,52.3588806,4.9886041,Amadi Panorama Hotel_52.359_4.989,481.0
Room Mate Aitana,7.5,4097,52.3846059,4.8941866,Room Mate Aitana_52.385_4.894,916.0
DoubleTree by Hilton London Chelsea,9.2,1181,51.475172,-0.1870629,DoubleTree by Hilton London Chelsea_51.475_-0.187,550.0
Hotel G tico,10.0,139,41.3835584,2.178311,Hotel G tico_41.384_2.178,25.0
Hotel JL No76,9.6,914,52.3595919,4.8801587,Hotel JL No76_52.36_4.88,312.0
Bilderberg Hotel Jan Luyken,9.6,1207,52.3599196,4.8810128,Bilderberg Hotel Jan Luyken_52.36_4.881,366.0
Gran Hotel Barcino,7.9,448,41.3830582,2.1778267,Gran Hotel Barcino_41.383_2.178,82.0
Aparthotel Atenea Barcelona,4.2,1098,41.3862689,2.1291786,Aparthotel Atenea Barcelona_41.386_2.129,178.0
Mercure Hotel Amsterdam City South,7.9,3568,52.335182,4.9138688,Mercure Hotel Amsterdam City South_52.335_4.914,801.0
Am Spiegeln,6.3,240,48.1537005,16.2825822,Am Spiegeln_48.154_16.283,21.0
Hotel Gallitzinberg,9.6,173,48.2145071,16.2845042,Hotel Gallitzinberg_48.215_16.285,8.0
InterContinental Wien,7.1,737,48.2019865,16.3789934,InterContinental Wien_48.202_16.379,142.0
Dutch Design Hotel Artemis,7.1,2167,52.3417894,4.824952,Dutch Design Hotel Artemis_52.342_4.825,432.0
Mercure Josefshof Wien,7.1,2526,48.2085627,16.3541687,Mercure Josefshof Wien_48.209_16.354,416.0
Vincci Bit,8.8,2848,41.4114188,2.211756,Vincci Bit_41.411_2.212,411.0
